id	place	value	longitude	latitude	show_on_main_map	show_on_voyage_map	region_id
4	Alicante	10101	0.0000000	0.0000000	0	0	1
5	Barcelona	10102	2.1833300	41.3833300	1	1	1
6	Bilbao	10103	-2.9666700	43.2500000	1	1	1
7	Cadiz	10104	-6.2994400	36.5336100	1	1	1
8	Figuera	10105	0.0000000	0.0000000	0	0	1
9	Gibraltar	10106	-5.3500000	36.1333300	0	1	1
10	Coru?a	10107	-8.3833300	43.3666700	1	1	1
1551	?vila?	10108	-4.6812086	40.6566850	1	1	1
1489	Beja	10109	-7.8627308	38.0153039	1	1	1
11	Santander	10110	-3.8044400	43.4647200	1	1	1
12	Seville	10111	-5.9869400	37.3772200	1	1	1
13	San Lucar	10112	-6.3500000	36.7833300	1	1	1
724	Vigo	10113	-8.7200000	42.2333300	0	1	1
1468	Albacete	10114	-1.8601730	38.9942576	1	1	1
850	Puerto Santa Maria	10115	-6.2588370	36.6393280	1	1	1
1503	Bragan?a	10116	-6.7567380	41.8061131	1	1	1
1555	C?rdoba	10117	-4.7793835	37.8881751	1	1	1
1556	Extremadura	10118	-6.0679194	39.4937392	1	1	1
1557	Faro	10119	-7.9304397	37.0193548	1	1	1
1558	Galicia	10121	-8.1338558	42.5750554	1	1	1
1559	Granada	10122	-3.5984368	37.1774605	1	1	1
1560	Gipuzkoa, Spain	10123	-2.2236667	43.0756299	1	1	1
1561	Madrid	10124	-3.7037902	40.4167754	1	1	1
1562	M?laga	10125	-4.4212655	36.7212610	1	1	1
1563	Mos, Pontevedra	10126	-8.6051092	42.2051349	1	1	1
1564	Murcia	10127	-1.1306544	37.9922399	1	1	1
1565	Renton	10128	-6.7238930	43.5398246	1	1	1
1566	Olh?o	10129	-7.8423509	37.0260416	1	1	1
1567	Valladolid	10131	-4.7165331	41.6519078	1	1	1
723	Spain, place unspecified	10199	-6.2994400	36.5336100	0	1	1
1470	Ameixeira	10201	-8.5053034	41.2030443	1	1	2
14	Lagos	10202	-8.6666700	37.1000000	0	1	2
15	Lisbon	10203	-9.1333300	38.7166700	1	1	2
16	Oporto	10204	-8.6166700	41.1500000	1	1	2
1	Ilha do Fayal	10205	-28.7000000	38.5666700	0	1	2
787	Setubal	10206	-8.8930700	38.5245000	0	0	2
1478	Aveiro	10207	-8.6537539	40.6405055	1	1	2
1483	Barcelos	10208	-8.6178922	41.5317419	1	1	2
1490	Bel?m	10209	-48.5012990	-1.4563432	1	1	2
1575	Braga	10210	-8.4265070	41.5454486	1	1	2
1576	carzon de Braganza	10211	-6.7675875	41.8008646	1	1	2
1517	Cascais	10212	-9.4222945	38.6970565	1	1	2
1518	Castelo Branco	10213	-7.4965133	39.8196165	1	1	2
1523	Cernache do Bonjardim	10214	-8.1849383	39.8169193	1	1	2
1526	Chaves	10215	-7.4706046	41.7410586	1	1	2
1581	Coimbra	10216	-8.4102573	40.2033145	1	1	2
1582	Penalva do Castelo	10217	-7.6710889	40.6887505	1	1	2
1583	Evora	10218	-7.9135020	38.5714310	1	1	2
1584	Fafe	10219	-8.1728619	41.4508217	1	1	2
1585	Graja	10221	-8.6478378	41.0425186	1	1	2
1586	Guarda	10222	-7.2646725	40.5538450	1	1	2
1587	Guimaraes	10223	-8.2917857	41.4425300	1	1	2
1588	Leiria	10224	-8.8076830	39.7495331	1	1	2
1589	Lugo	10225	-7.5567582	43.0097384	1	1	2
1590	Mouraz	10226	-8.0685791	40.4768706	1	1	2
1591	?bidos	10227	-9.1582014	39.3604212	1	1	2
1592	Ribadeo	10228	-7.0403489	43.5336794	1	1	2
1593	Porto	10229	-8.6291053	41.1579438	1	1	2
1594	Our?m	10230	-8.4590077	39.7306188	1	1	2
1595	Freixo	10231	-8.5873273	41.6598811	1	1	2
1596	villa cova	10232	-8.7090931	41.5458502	1	1	2
1597	Santar?m	10233	-8.6860119	39.2366618	1	1	2
1598	S?o Martinho da G?ndara	10234	-8.5335530	40.8572521	1	1	2
1536	Ilha de S?o Miguel, A?ores	10235	-25.4970466	37.7804110	1	1	2
1600	Sao Pedro lomar, Braga	10236	-8.4273653	41.5285785	1	1	2
1601	Sintra	10237	-9.3816589	38.8028687	1	1	2
1602	Tavira	10238	-7.6430019	37.1335906	1	1	2
1603	Vila Nova de Gaia	10239	-8.6139947	41.1220537	1	1	2
1605	Viseu	10242	-7.9124712	40.6565861	1	1	2
1606	Vila Nova	10244	-7.1403598	41.0822466	1	1	2
1607	Funchal	10252	-16.9240554	32.6669328	1	1	2
1608	Vila Real	10253	-7.7406687	41.2991248	1	1	2
1609	Tabula	10254	-8.3997566	41.2310498	1	1	2
1610	Pomar, Coimbra	10255	-8.4238002	40.2059624	1	1	2
2337	Viana do Castelo	10256	-8.8329000	41.6932000	1	1	2
17	Portugal, port unspecified	10299	-9.1333300	38.7166700	0	1	2
1467	Ainsdale, Southport	10301	-3.0413134	53.6052685	1	1	3
1532	Ovingham	10302	-1.8670039	54.9684629	1	1	3
18	Great Britain, place unspecified	10399	-0.1166700	51.5000000	0	1	3
19	Barmouth	10401	0.0000000	0.0000000	0	0	63
20	Bideford	10402	0.0000000	0.0000000	0	0	63
21	Birkenhead	10403	0.0000000	0.0000000	0	0	63
22	Bristol	10404	-2.5833300	51.4500000	1	1	63
23	Brixham	10405	0.0000000	0.0000000	0	0	63
24	Broadstairs	10406	1.4500000	51.3666700	1	0	63
25	Cawsand	10407	0.0000000	0.0000000	0	0	63
26	Chepstow	10408	0.0000000	0.0000000	0	0	63
27	Chester	10409	-2.9166700	53.2000000	1	1	63
28	Colchester	10410	0.9000000	51.8833300	0	1	63
29	Cowes	10411	-1.3000000	50.7666700	1	1	63
30	Dartmouth	10412	-3.5833300	50.3500000	1	1	63
31	Deptford	10413	0.0000000	0.0000000	0	0	63
32	Dover	10414	1.3000000	51.1333300	1	1	63
33	Exeter	10415	-3.5333300	50.7000000	1	1	63
34	Folkstone	10416	1.1833300	51.0833300	1	0	63
35	Frodsham	10417	0.0000000	0.0000000	0	0	63
36	Gainsborough	10418	0.0000000	0.0000000	0	0	63
37	Greenwich	10419	0.0000000	0.0000000	0	0	63
38	Guernsey	10420	-2.5333300	49.4500000	1	1	63
39	Harwich	10421	0.0000000	0.0000000	0	0	63
40	Hull	10422	-0.3333300	53.7166700	1	1	63
41	Ilfracombe	10423	0.0000000	0.0000000	0	0	63
42	Ipswich	10424	1.1666700	52.0833300	1	0	63
43	Isle of Man	10425	0.0000000	0.0000000	0	0	63
44	Isle of Wight	10426	0.0000000	0.0000000	0	0	63
45	Jersey	10427	0.0000000	0.0000000	0	0	63
46	Kendal	10428	-2.7500000	54.3166700	0	1	63
47	King's Lynn	10429	0.0000000	0.0000000	0	0	63
48	Lancaster	10430	-2.8333300	54.0666700	1	1	63
49	Lindale	10431	0.0000000	0.0000000	0	0	63
50	Liverpool	10432	-3.0000000	53.4166700	1	1	63
51	London	10433	-0.1166700	51.5000000	1	1	63
52	Lyme	10434	-2.9333300	50.7333300	1	1	63
1466	Lancashire, place unspecified	10435	-2.5704370	53.6926700	1	1	63
53	Maryport	10436	0.0000000	0.0000000	0	0	63
54	Milford Haven	10437	-5.0333300	51.7166700	1	1	63
769	New Shoreham	10438	-0.2333300	50.8333300	0	0	63
55	Newcastle upon Tyne	10439	-1.6194400	54.9880600	1	1	63
56	Newnham	10440	0.0000000	0.0000000	0	0	63
57	North Shields	10441	0.0000000	0.0000000	0	0	63
58	Northam	10442	0.0000000	0.0000000	0	0	63
59	Norwich	10443	0.0000000	0.0000000	0	0	63
60	Padstowe	10444	-4.9333300	50.5333300	1	1	63
61	Parkgate	10445	-6.1000000	54.7166700	1	0	63
62	Piel of Foulney	10446	0.0000000	0.0000000	0	0	63
63	Plymouth	10447	-4.1386100	50.3963900	1	1	63
64	Poole	10448	-2.0000000	50.7166700	1	1	63
65	Portsery	10449	0.0000000	0.0000000	0	0	63
66	Portsmouth	10450	-1.0833300	50.7666700	1	1	63
67	Poulton	10451	-2.9833300	53.8333300	1	1	63
68	Preston	10452	-2.7200000	53.7666700	0	1	63
69	Ramsgate	10453	0.0000000	0.0000000	0	0	63
70	Ravenglass	10454	0.0000000	0.0000000	0	0	63
71	River Thames	10455	0.4064200	51.4268700	1	0	63
72	Rochester	10456	0.0000000	0.0000000	0	0	63
73	Rotherhithe	10457	0.0000000	0.0000000	0	0	63
74	Rye	10458	0.0000000	0.0000000	0	0	63
75	Scarborough	10459	0.0000000	0.0000000	0	0	63
76	Sheerness	10460	0.0000000	0.0000000	0	0	63
77	Shields	10461	0.0000000	0.0000000	0	0	63
770	Shoreham	10462	-0.2333300	50.8333300	0	1	63
78	Sidmouth	10463	0.0000000	0.0000000	0	0	63
79	Southampton	10464	-1.4000000	50.9000000	1	0	63
1485	Barton	10465	-1.7228153	52.7635270	1	1	63
80	Stockton	10466	-1.4200000	54.5833300	0	1	63
81	Stockwithe	10467	0.0000000	0.0000000	0	0	63
82	Sunderland	10468	0.0000000	0.0000000	0	0	63
83	Teignmouth	10469	0.0000000	0.0000000	0	0	63
84	Topsham	10470	-3.4500000	50.6833300	0	1	63
85	Torbay	10471	0.0000000	0.0000000	0	0	63
86	Wales	10472	-3.6843100	52.3573400	1	1	63
87	Whitby	10473	-0.6305600	54.4866700	1	0	63
88	Whitehaven	10474	-3.6000000	54.5500000	1	1	63
1486	Bath	10475	-2.3613581	51.3807920	1	1	63
89	Workington	10476	0.0000000	0.0000000	0	0	63
90	Yarmouth	10477	-1.5000000	50.7000000	1	0	63
91	Youghal	10478	0.0000000	0.0000000	0	0	63
92	Conway	10479	0.0000000	0.0000000	0	0	63
93	Falmouth (Eng.)	10480	-5.0710600	50.1559900	0	1	63
874	Lymehouse (a) Limehouse	10481	-0.0352330	51.5132400	1	1	63
1644	Beaumont cote, Bolton le Sands, Lancashire	10482	-2.8045340	54.1077062	1	1	63
1488	Beckermet	10483	-3.5168370	54.4475050	1	1	63
1493	Ruthin	10484	-3.2986356	53.1205380	1	1	63
851	Lympstone	10485	-3.4294850	50.6481940	1	1	63
1465	Ballatoar, Isle of Man	10486	-4.5152008	54.3235447	1	1	63
1475	Ashton-in-Makerfield	10488	-2.6425660	53.4869569	1	1	63
1476	Aspull	10489	-2.5883110	53.5682130	1	1	63
1477	Aughton	10490	-2.9191120	53.5378740	1	1	63
1480	Dalton-in-Furness	10491	-2.7044052	53.7632254	1	1	63
1499	Bodfari, Flintshire	10492	-3.3592152	53.2214454	1	1	63
1501	Bootle	10493	-2.9988950	53.4432550	1	1	63
1506	Brampton Bryan	10494	-2.9260785	52.3458490	1	1	63
1510	Bromfield, Cumberland	10495	-3.2816074	54.8087340	1	1	63
1511	Brookhouse, Caton	10496	NULL	54.0753422	1	1	63
1513	Bunbury, Cheshire	10497	-2.6503622	53.1160972	1	1	63
1762	Smithies, South Barnsley	10498	-1.4610630	53.5316973	1	1	63
94	England, place unspecified	10499	-0.1166700	51.5000000	0	1	63
95	Airth	10501	0.0000000	0.0000000	0	0	64
96	Borrowstounness	10502	0.0000000	0.0000000	0	0	64
97	Dundee	10503	0.0000000	0.0000000	0	0	64
98	Glasgow	10504	-4.2500000	55.8333300	1	1	64
99	Greenock	10505	-4.7500000	55.9333300	1	1	64
100	Leith	10506	-3.1666700	55.9500000	1	1	64
102	Montrose	10508	-2.4500000	56.7000000	1	1	64
103	Ross	10509	0.0000000	0.0000000	0	0	64
104	Saltcoats	10510	0.0000000	0.0000000	0	0	64
105	Largo, Fifeshire	10511	0.0000000	0.0000000	0	0	64
875	Dumfries	10512	-3.6051198	55.0708590	1	1	64
178	Point Askaig	10513	0.0000000	0.0000000	0	0	64
852	Cambletown	10514	-5.6053740	55.4241170	1	1	64
853	Portpatrick	10515	-5.1160570	54.8427900	1	1	64
854	Erwin	10516	0.0001235	0.0001235	1	1	64
855	Aberdeen	10517	-2.0942780	57.1497170	1	1	64
856	Stranraer	10518	-5.0240550	54.9033670	1	1	64
970	Oban	10519	-5.4710467	56.4151570	1	1	64
1515	Campbeltown	10520	-5.6053740	55.4241170	1	1	64
1781	Loch Dochfour	10521	-4.3240194	57.4176589	1	1	64
1782	Dumfriesshire	10522	-3.5060000	55.2000971	1	1	64
1783	Edinburgh	10523	-3.1882670	55.9532520	1	1	64
1784	Galloway	10524	-4.1409785	55.0759404	1	1	64
1785	Gretna	10525	-3.0650636	54.9946732	1	1	64
1786	Jedburgh	10526	-2.5549369	55.4777210	1	1	64
1788	Killead	10527	-6.1822433	54.6632853	1	1	64
1789	kincardineshire	10528	-2.5790885	56.9331742	1	1	64
1790	Kirkcudbright	10529	-4.0487800	54.8375690	1	1	64
1791	Kirkliston	10530	-3.4014110	55.9569720	1	1	64
1792	Netherton	10531	-2.9631400	53.4774586	1	1	64
1793	Pentland Firth, UK	10532	-3.1150000	58.7160000	1	1	64
1794	Perth, Scotland	10533	-3.4377528	56.4015766	1	1	64
1795	Tarbolton	10534	-4.4881560	55.5122400	1	1	64
1796	Turnberry	10535	-4.8313868	55.3110992	1	1	64
106	Scotland, place unspecified	10599	-4.0100000	56.7803600	0	1	64
107	Cork	10601	-8.4958300	51.8986100	1	1	65
108	Dublin	10602	-7.5502800	52.5744400	1	1	65
109	Dungarvan	10603	0.0000000	0.0000000	0	0	65
110	Galway	10604	-9.0488900	53.2719400	1	0	65
111	Kinsale	10605	-8.5233100	51.7064400	0	1	65
112	Limerick	10606	-8.6665200	52.6622200	0	1	65
113	Londonderry	10607	0.0000000	0.0000000	0	0	65
114	Ringsend	10608	-7.5913900	54.7947200	1	0	65
115	Strangford	10609	0.0000000	0.0000000	0	0	65
116	Waterford	10610	-7.1100000	52.2583300	0	1	65
117	Wexford	10611	0.0000000	0.0000000	0	0	65
876	Belfast	10612	-5.9301190	54.5972850	1	1	65
877	Coleraine	10613	-5.9301199	54.5972850	1	1	65
1812	Skibbereen	10614	-9.2621303	51.5559244	1	1	65
1813	Tonaghmore, Cloghernalaura	10615	-9.3963889	53.2861111	1	1	65
1814	Tynan	10616	-6.8226300	54.3299900	1	1	65
1815	Drogheda	10617	-6.3560985	53.7178560	1	1	65
101	Lough Neagh	10618	0.0000000	0.0000000	0	0	65
118	Ireland, place unspecified	10699	0.0000000	0.0000000	0	0	65
119	Bayonne	10702	-1.4833300	43.4833300	1	1	4
120	Bordeaux	10703	-0.5666700	44.8333300	1	1	4
121	Brest	10704	-4.4833300	48.4000000	1	1	4
122	Calais	10705	1.8586860	50.9512900	0	0	4
123	Camaret	10706	-2.6393200	47.7442000	0	1	4
124	Dieppe	10707	1.0833300	49.9333300	1	1	4
125	Dinard	10708	-2.0632000	48.6305500	0	1	4
126	Dunkerque	10709	2.3666700	51.0500000	1	1	4
127	Honfleur	10710	0.2333300	49.4166700	1	1	4
128	Ile de Batz	10711	-4.0173700	48.7454600	0	1	4
129	La Rochelle	10712	-1.1500000	46.1666700	1	1	4
130	Le Havre	10713	0.1333300	49.5000000	1	1	4
131	Les Sables	10714	-1.9823200	47.0628400	0	1	4
132	Lorient	10715	-3.3666700	47.7500000	1	1	4
768	Marseille	10716	5.4000000	43.3000000	1	1	4
133	Mediterranean coast (France)	10717	5.4000000	43.3000000	0	1	4
134	Mindin	10718	-2.1666700	47.2666700	1	1	4
135	Morlaix	10719	-3.8333300	48.5833300	1	1	4
136	Nantes	10720	-1.5500000	47.2166700	1	1	4
137	Paimboeuf	10721	-2.0333300	47.2833300	1	0	4
138	Port Louis	10722	-3.3558700	47.7083800	0	1	4
139	Quimper	10723	0.0000000	0.0000000	0	0	4
140	Rochefort	10724	-0.9833300	45.9333300	1	1	4
141	Saint-Brieuc	10725	-2.7800000	48.5166700	0	1	4
142	Saint-Malo	10726	-2.0166700	48.6500000	1	1	4
143	Saint-Nazaire	10727	-2.2136100	47.2743200	0	1	4
144	Saint-Tropez	10728	0.0000000	0.0000000	0	0	4
145	S?te	10729	3.6966000	43.4017600	0	1	4
146	Vannes	10730	-2.7500000	47.6666700	1	1	4
1473	Anucita	10731	-2.8980307	42.8013829	1	1	4
1482	Barbezieux-Saint-Hilaire	10732	-0.1556890	45.4718940	1	1	4
1487	Beau sejour	10733	-1.3025672	44.9486800	1	1	4
1492	Bergerac	10734	0.4833920	44.8538060	1	1	4
1494	Biarritz	10735	-1.5586260	43.4831519	1	1	4
1497	Blaye	10736	-0.6629410	45.1268410	1	1	4
1514	Cadillac	10737	-0.3045881	44.6418889	1	1	4
1520	Castres	10738	2.2412950	43.6062140	1	1	4
1524	Chaillevette	10739	-1.0588580	45.7303090	1	1	4
1832	Clairac	10741	0.3757770	44.3604090	1	1	4
1833	?taules	10742	-1.1005810	45.7333430	1	1	4
1834	Grateloup-Saint-Gayrand	10743	0.3878050	44.4220140	1	1	4
1835	La Tremblade	10744	-1.1403350	45.7704550	1	1	4
1836	Languedoc-Roussillon, France	10745	3.2583626	43.5912356	1	1	4
1837	Le Fleix	10746	0.2445810	44.8755800	1	1	4
1838	Limoges	10747	1.2611050	45.8336190	1	1	4
1839	Lormont	10748	-0.5231080	44.8801630	1	1	4
1840	Lyon	10749	4.8356590	45.7640430	1	1	4
1841	Marennes-Hiers-Brouage	10751	-1.1039980	45.8237520	1	1	4
1842	Mirambeau	10752	-0.5700440	45.3728870	1	1	4
1843	Montpellier	10753	3.8767160	43.6107690	1	1	4
1844	Mornac	10754	0.2719860	45.6801680	1	1	4
1845	Nice	10755	7.2619532	43.7101728	1	1	4
1846	Ol?ron, France	10756	-1.2733651	45.9539730	1	1	4
1847	Paillet	10757	-0.3643868	44.6840224	1	1	4
1848	Podensac	10758	-0.3545140	44.6507540	1	1	4
1849	Rennes	10759	-1.6777926	48.1172660	1	1	4
1850	Pauillac	10761	-0.7537779	45.1833870	1	1	4
1851	Toulouse	10762	1.4442090	43.6046520	1	1	4
1852	Tournon-sur-Rh?ne	10763	4.8321370	45.0679150	1	1	4
2473	Cherbourg	10765	-1.6200000	49.6369550	1	1	4
147	France, place unspecified	10799	-1.5500000	47.2166700	0	1	4
1469	Alkmaar	10801	4.7533754	52.6323813	1	1	5
1471	Amersfoort	10802	5.3878266	52.1561113	1	1	5
1491	Bergen	10803	4.7069407	52.6755400	1	1	5
1500	Zaltbommel	10804	5.2507733	51.8135539	1	1	5
1502	Boskoop	10805	4.6584762	52.0742845	1	1	5
1512	Buiksloot	10806	4.9179696	52.4062945	1	1	5
1860	Brielle	10807	4.1636846	51.9025820	1	1	5
1861	Den Helder	10808	4.7607972	52.9562808	1	1	5
1862	Den Hoorn	10809	4.7552065	53.0262819	1	1	5
148	Amsterdam	10810	4.9166700	52.3500000	1	1	5
1863	Eemnes	10811	5.2612754	52.2537461	1	1	5
1864	Egmond aan Zee	10812	4.6302431	52.6225270	1	1	5
1865	Fleringen	10813	6.4999699	50.2083393	1	1	5
1866	Friesland	10814	5.7817542	53.1641642	1	1	5
1867	Geertruidenberg	10815	4.8499781	51.7023659	1	1	5
1868	Goes	10816	3.8909117	51.5044711	1	1	5
1869	graft	10817	4.8320065	52.5627280	1	1	5
1870	Haarlem	10818	4.6462194	52.3873878	1	1	5
1871	Harlingen	10819	5.4295482	53.1750938	1	1	5
1872	Hasselt	10820	5.3425633	50.9326432	1	1	5
149	Enkhuizen	10821	5.2800000	52.7166700	0	1	5
150	Hoorn	10822	0.0000000	0.0000000	0	0	5
1874	Hindeloopen	10823	5.4012542	52.9426846	1	1	5
1875	Hulst	10824	4.0548869	51.2806907	1	1	5
1876	IJzendijke	10825	3.6167632	51.3217174	1	1	5
608	Zaandam	10827	4.8263467	52.4427325	0	0	5
151	Zuider Zee	10828	5.2700000	52.5456200	0	1	5
152	Texel	10829	4.8199100	53.1493300	1	1	5
153	Rotterdam	10830	4.5000000	51.9166700	1	1	5
154	Dordrecht	10831	4.6700000	51.8000000	0	1	5
155	Maze	10832	4.5986000	51.7514000	0	1	5
156	Moerdijk	10833	4.6273700	51.7020200	0	1	5
157	Hellevoetsluis	10834	4.1333300	51.8333300	1	1	5
1885	Monnickendam	10835	5.0392316	52.4555687	1	1	5
1886	Naarden	10836	5.1604238	52.2952549	1	1	5
1887	Nieuwendam	10837	4.9469109	52.3938679	1	1	5
1888	Obdam	10838	4.9081883	52.6760192	1	1	5
1889	Oldenzaal	10839	6.9268283	52.3116551	1	1	5
158	Zeeland	10840	3.7710900	51.4964700	1	1	5
1891	Oostburg	10841	3.4887230	51.3281122	1	1	5
1892	Oostzaan	10842	4.8757219	52.4404972	1	1	5
1893	Ravenstein	10843	5.6515008	51.7967784	1	1	5
1894	Roosendaal	10844	4.4653213	51.5358490	1	1	5
1895	Leiden	10845	4.4970097	52.1601144	1	1	5
1896	Schellingwoude	10846	4.9617484	52.3832269	1	1	5
1897	Schoorl	10847	4.7053146	52.7054779	1	1	5
1898	Sint-Annaland	10848	4.1033185	51.5998713	1	1	5
1899	Sint-Maartensdijk	10849	4.0767226	51.5491448	1	1	5
616	Middelburg	10850	3.6100000	51.5000000	1	1	5
159	Vlissingen	10851	3.5833300	51.4500000	1	1	5
788	Veere	10852	3.6640700	51.5451000	0	0	5
833	Zeeland or Middelburg	10853	0.0001235	0.0001235	1	1	5
1902	Spierdijk	10854	4.9421568	52.6506009	1	1	5
1903	Stavoren	10856	5.3607068	52.8829456	1	1	5
1904	The Hague	10859	4.3006999	52.0704978	1	1	5
160	Groningen	10860	6.5500000	53.2166700	0	1	5
1906	Utrecht	10861	5.1214201	52.0907374	1	1	5
1907	Werkendam	10862	4.8918480	51.8081653	1	1	5
1908	West-Souburg	10863	3.5893108	51.4669525	1	1	5
1909	Woerden	10864	4.8627239	52.0798287	1	1	5
1910	Zierikzee	10865	3.9184977	51.6501218	1	1	5
1911	Zwolle	10866	6.0830219	52.5167747	1	1	5
1912	Netherlands	10867	5.2550728	51.8327606	1	1	5
1913	Aalsmeer	10869	4.7599646	52.2617972	1	1	5
1914	Twisk	10870	5.0563358	52.7413549	1	1	5
1915	Leiderdorp	10871	4.5281733	52.1509854	1	1	5
1916	Ameland, Netherlands	10872	5.6587659	53.4405640	1	1	5
1917	Wijk aan Zee	10873	4.5937650	52.4936023	1	1	5
1538	Gorinchem	10874	4.9716753	51.8376797	1	1	5
1540	Kampen	10875	5.8817377	52.5699660	1	1	5
1541	Kats	10876	3.8808347	51.5749406	1	1	5
1542	Katwijk aan Zee	10877	4.4112080	52.1997053	1	1	5
1543	Maarssen	10878	5.0273124	52.1325876	1	1	5
1544	Maassluis	10879	4.2466861	51.9222901	1	1	5
1545	Medemblik	10880	5.0632746	52.7543541	1	1	5
161	Netherlands, port unspecified	10899	4.8199100	53.1493300	0	1	5
162	K?benhavn	10901	12.5833300	55.6666700	1	1	6
163	Husum	10902	8.6800000	55.0666700	0	1	6
789	Helsing?r	10903	12.6135000	56.0363000	0	0	6
1924	Gr?dyb	10904	8.3438247	55.4734217	1	1	6
1925	Copenhagen	10905	12.5683371	55.6760968	1	1	6
1926	Ribe	10906	8.7746650	55.3269360	1	1	6
1927	Hornby	10994	-2.6361031	54.1120460	1	1	63
164	Denmark, port unspecified	10999	0.0000000	0.0000000	0	0	6
165	Pillau	11001	19.9100000	54.6522200	0	1	66
166	Elbe	11002	10.0000000	53.5500000	0	1	66
167	Emden	11003	7.2166700	53.3666700	1	1	66
168	Hamburg	11004	10.0000000	53.5500000	1	1	66
878	Hanover	11005	9.7320100	52.3758920	1	1	66
849	L?beck	11006	10.6865590	53.8654670	1	1	66
929	Gl?ckstadt	11007	9.4260900	53.7911910	1	1	66
1472	?ngelholm	11008	12.8638810	56.2457480	1	1	66
1479	Baden bei Wien	11009	16.2309100	48.0021400	1	1	66
1498	Bockhorn	11010	8.0135107	53.3936172	1	1	66
1507	Brandenburg	11011	12.5316444	52.4125287	1	1	66
1508	Bremen	11012	8.8016937	53.0792962	1	1	66
1509	Bremerlee	11013	10.4515260	51.1656910	1	1	66
1936	Cologne	11014	6.9535527	50.9461193	1	1	66
1937	Wolgast	11015	13.7665592	54.0496018	1	1	66
1938	Wardenburg	11016	8.1991278	53.0580029	1	1	66
1939	Sylt, Germany	11017	8.3179854	54.9082791	1	1	66
1940	Feucht	11018	11.2129142	49.3753539	1	1	66
1941	F?hr	11019	8.5031023	54.7182229	1	1	66
1942	Frankenthal	11021	8.3560768	49.5377072	1	1	66
1943	Frankfurt	11022	8.6821267	50.1109221	1	1	66
1944	Goch	11023	6.1565522	51.6799840	1	1	66
1945	Halberstadt	11024	11.0488695	51.8916475	1	1	66
1946	Jever	11025	7.9002789	53.5755787	1	1	66
1947	Biebertal	11026	8.5383721	50.6415556	1	1	66
1948	Kronberg	11027	8.5201703	50.1826861	1	1	66
1949	L?tjenburg	11028	10.5864414	54.2941415	1	1	66
1950	Jemgum	11029	7.2935348	53.3080064	1	1	66
1951	Otterndorf	11031	8.8976663	53.8089499	1	1	66
1952	Lier/Leer	11032	7.4752888	53.2429734	1	1	66
1953	Rostock	11033	12.0968194	54.0911274	1	1	66
1954	Schleswig	11034	9.5608476	54.5249669	1	1	66
1955	Stadland	11035	8.3567239	53.4019335	1	1	66
1956	Stade	11036	9.4709494	53.5928618	1	1	66
1957	Stolberg	11037	6.2251934	50.7730884	1	1	66
1958	Stralsund	11038	13.0770347	54.3090654	1	1	66
1959	Germany	11039	10.4515260	51.1656910	1	1	66
1960	Delmenhorst	11040	8.6355932	53.0521886	1	1	66
1961	Dortmund	11041	7.4652981	51.5135872	1	1	66
857	Germany - port unspecified	11099	0.0001235	0.0001235	1	1	66
169	Antwerp	11101	4.4166700	51.2166700	1	1	67
170	Flanders	11102	0.0000000	0.0000000	0	0	67
790	Brugge	11103	0.2252400	51.2094000	0	0	67
1495	Ghent	11104	3.7303351	51.0500182	1	1	67
1964	Leuven	11105	4.7137645	50.8822871	1	1	67
1965	Li?ge	11106	5.5697498	50.6329586	1	1	67
1966	Brussels	11107	4.3527555	50.8466495	1	1	67
1537	Doornik	11108	3.3864627	50.6113920	1	1	67
1539	Mechelen	11109	4.4791301	51.0267612	1	1	67
2363	Ostend	11110	2.9286560	51.2154300	1	1	67
171	Belgium, port unspecified	11199	4.4166700	51.2166700	0	1	67
172	T?nsberg	11201	10.4200000	59.2858000	0	1	68
173	Bergen	11202	0.0000000	0.0000000	0	0	68
1967	Halden	11203	11.3874569	59.1329964	1	1	68
1968	Kristiansand	11204	8.0182064	58.1599119	1	1	68
1969	Trondheim	11205	10.3950528	63.4305149	1	1	68
1533	Stavanger	11206	5.7331073	58.9699756	1	1	68
836	Norway, port unspecified	11299	0.0000000	0.0000000	0	0	68
174	G?teborg	11301	11.9700000	57.7166700	0	1	69
1971	Ystad	11302	13.8200308	55.4295051	1	1	69
1972	Gothenburg	11303	11.9745600	57.7088700	1	1	69
1973	Listerlandet	11304	14.6833333	56.0500000	1	1	69
1974	Stockholm	11305	18.0685808	59.3293235	1	1	69
1975	Uddevalla	11306	11.9356490	58.3498003	1	1	69
1976	Varberg	11307	12.2520907	57.1071180	1	1	69
1977	V?stervik	11308	16.6369759	57.7577156	1	1	69
1978	?ngelholm	11309	12.8638810	56.2457480	1	1	69
175	Sweden, port unspecified	11399	0.0000000	0.0000000	0	0	69
176	Genova	11401	0.0000000	0.0000000	0	0	70
177	Napoli	11402	14.2500000	40.8333300	1	0	70
179	Trieste	11404	13.7800000	45.6486100	0	1	70
1979	Gozo, Malta	11405	14.2512221	36.0442999	1	1	70
1980	Livorno	11406	10.3105674	43.5484730	1	1	70
837	Italy, port unspecified	11499	0.0000000	0.0000000	0	0	70
180	Kronstadt	11501	0.0000000	0.0000000	0	0	71
181	Odessa	11502	30.7333300	46.4666700	0	1	71
838	Russia, port unspecified	11599	0.0000000	0.0000000	0	0	71
798	Sardinia	11601	0.0000000	0.0000000	0	0	72
182	Mediterranean, port unspecified	11699	0.0000000	0.0000000	0	0	72
1981	Switzerland	11798	8.2275120	46.8181880	1	1	106
930	Latvia, port unspecified	11799	21.5647070	57.3937220	1	1	95
1522	Cephalonia	11898	20.5692179	38.1753675	1	1	104
1496	Gda?sk	11901	18.6466384	54.3520252	1	1	106
1984	Ko?obrzeg	11902	15.5832667	54.1759173	1	1	106
1985	Szczecin	11903	14.5528116	53.4285438	1	1	106
1986	Szczecin (stettin)	11904	14.5528116	53.4285438	1	1	104
1987	Ustka	11905	16.8618910	54.5805607	1	1	104
183	Bristol (RI)	20101	-71.2667000	41.6769000	1	1	7
184	Little Compton	20102	0.0000000	0.0000000	0	0	7
185	Newport	20103	-71.3133000	41.4900000	1	1	7
186	North Kingston	20104	-71.4679600	41.5540100	0	1	7
187	Providence	20105	-71.4133000	41.8239000	1	1	7
188	Tiverton	20106	0.0000000	0.0000000	0	0	7
189	Warren	20107	-71.2831000	41.7303000	1	1	7
924	Warwick, RI	20108	-71.4161671	41.7001009	1	1	7
1002	Westerley	20109	-71.8273000	41.3776000	0	1	7
1484	Barrington	20110	-88.1361888	42.1539141	1	1	7
1995	Chopmist	20111	-71.6192964	41.7964119	1	1	7
1996	Narragansett	20112	-71.4495030	41.4500844	1	1	7
1997	Smithfield	20113	-71.5494212	41.9231781	1	1	7
1998	Cranston	20114	-71.4372796	41.7798226	1	1	7
619	Rhode Island, port unspecified	20199	-71.3100000	41.4900000	0	1	7
190	Bath	20201	0.0000000	0.0000000	0	0	73
191	Berwick	20202	0.0000000	0.0000000	0	0	73
192	Biddeford	20203	0.0000000	0.0000000	0	0	73
193	Calais (Maine)	20204	0.0000000	0.0000000	0	0	73
194	Camden	20205	0.0000000	0.0000000	0	0	73
2146	Troy	20206	-69.2416600	44.6648400	1	1	73
195	Freeport	20207	0.0000000	0.0000000	0	0	73
196	Portland	20208	-70.2566500	43.6591700	0	1	73
197	Prospect	20209	0.0000000	0.0000000	0	0	73
198	Richmond	20210	0.0000000	0.0000000	0	0	73
199	Robbinston	20211	0.0000000	0.0000000	0	0	73
200	Rockland	20212	0.0000000	0.0000000	0	0	73
201	Sheepscutt River	20213	-69.6884000	43.9050900	1	0	73
202	Wiscasset	20214	0.0000000	0.0000000	0	0	73
923	Kittery Point	20215	-70.7078300	43.0834220	1	1	73
879	Orrington	20216	-68.7904630	44.7202100	1	1	73
880	Penobscot	20217	-68.7111390	44.4645200	1	1	73
995	Thomaston	20218	-69.1817000	44.0790000	0	1	73
996	Gardiner	20219	-69.7753000	44.2300000	0	1	73
997	Bangor	20220	-68.7712000	44.8016000	0	1	73
1000	St. George	20221	-69.1989000	44.0165000	0	1	73
1005	Falmouth	20222	NULL	43.7435000	0	1	73
1285	Nesterbury	20223	NULL	NULL	0	0	73
1003	Hampden	20224	-68.8370000	44.7445000	0	1	73
1008	Hallowell	20225	-69.7909000	44.2859000	0	1	73
1007	Nobleborough	20226	-69.4852000	44.0796000	0	1	73
1006	Brewer	20227	-68.7614000	44.7967000	0	1	73
839	Maine, port unspecified	20299	0.0000000	0.0000000	0	0	73
203	Piscataqua	20301	-70.7933300	43.1005600	1	1	41
204	Portsmouth (NH)	20302	-70.7631000	43.0717000	1	1	41
796	North Hampton	20303	-70.7780500	42.9571800	0	0	41
205	New Hampshire, port unspecified	20399	-70.7631000	43.0717000	0	1	41
206	Massachusetts Bay	20401	-70.5053700	41.7742200	1	0	8
207	Amesbury	20402	-70.9305600	42.8583300	1	0	8
208	Arundel	20403	0.0000000	0.0000000	0	0	8
209	Boston	20404	-71.0594700	42.3616600	1	1	8
210	Chatham	20405	0.0000000	0.0000000	0	0	8
211	Cohasset	20406	0.0000000	0.0000000	0	0	8
212	Dighton	20407	-71.1208300	41.8138900	1	0	8
213	Duxbury	20408	-70.6727800	42.0416700	1	0	8
214	Freetown (Mass.)	20409	0.0000000	0.0000000	0	0	8
215	Georgetown	20410	-70.9913450	42.7246525	1	1	8
216	Hingham	20411	0.0000000	0.0000000	0	0	8
217	Kingston (Mass.)	20412	0.0000000	0.0000000	0	0	8
218	Marblehead	20413	-70.8565900	42.5031700	0	1	8
219	Marshfield	20414	0.0000000	0.0000000	0	0	8
220	New Bedford	20415	-70.9308200	41.6376800	0	1	8
221	Newbury	20416	-70.8778000	42.8125000	1	1	8
222	Salem	20417	-70.8972000	42.5194000	1	1	8
223	Salisbury	20418	0.0000000	0.0000000	0	0	8
224	Salfatudas	20419	0.0000000	0.0000000	0	0	8
225	Scituate	20420	0.0000000	0.0000000	0	0	8
226	Swansea	20421	-71.1902800	41.7480600	1	0	8
227	Weymouth	20422	0.0000000	0.0000000	0	0	8
228	Charlestown	20423	-71.0600000	42.3778000	0	1	8
832	Newburyport	20424	-70.8666670	42.8000000	0	1	8
881	Nantucket	20425	-70.0994590	41.2834704	1	1	8
858	Plymouth	20426	-70.6672621	41.9584457	1	1	8
926	Dartmouth	20427	-70.9704787	41.6130323	1	1	8
944	Somerset	20428	-71.1286194	41.7695425	1	1	8
999	Sandwich	20429	-70.4939000	41.7590000	0	1	8
1504	Braintree, MA	20430	-71.0040013	42.2079017	1	1	8
2006	Medford	20431	-71.1061639	42.4184296	1	1	8
2007	Rochester. MA	20432	-70.8473133	41.7538397	1	1	8
2008	Swansea, MA	20433	-71.2054117	41.7297396	1	1	8
2009	Taunton	20434	-71.0897674	41.9001010	1	1	8
2010	Cambridge, MA	20435	-71.1097335	42.3736158	1	1	8
1805	Dedham	20436	-71.1676536	42.2436085	1	1	8
229	Massachusetts, port unspecified	20499	-71.0594700	42.3616600	0	1	8
230	Bridgeport	20501	0.0000000	0.0000000	0	0	9
231	Guildford	20502	0.0000000	0.0000000	0	0	9
232	Haddam	20503	0.0000000	0.0000000	0	0	9
233	New Haven	20504	-72.9300000	41.3081000	0	1	9
234	New London	20505	-72.1000000	41.3556000	1	1	9
235	Middletown	20506	-72.6498100	41.5626900	0	1	9
236	Hartford	20507	0.0000000	0.0000000	0	0	9
882	Fairfield	20508	-73.2612610	41.1408363	1	1	9
883	Killingworth	20509	-72.5645600	41.3581870	1	1	9
884	Weathersfield	20510	0.0001235	0.0001235	1	1	9
998	Seabrook	20511	-72.3845000	41.2960000	0	1	9
1004	Mystic	20512	-71.9665000	41.3543000	0	1	9
2123	Glastonbury	20514	-72.5450700	41.6861700	1	1	9
237	Connecticut, port unspecified	20599	0.0000000	0.0000000	0	0	9
238	Brookhaven	20601	0.0000000	0.0000000	0	0	10
239	Long Island	20602	0.0000000	0.0000000	0	0	10
240	Sag Harbor	20603	0.0000000	0.0000000	0	0	10
2014	Fort Orange	20604	-73.7500394	42.6478508	1	1	10
2015	New Rochelle	20605	-73.7823549	40.9114882	1	1	10
1639	Rochdale, Queens, NY	20606	-2.1582742	53.6102174	1	1	10
725	New York	20699	-74.0070800	40.7145800	1	1	10
885	Wilmington	20701	-75.5397878	39.7390721	1	1	74
241	Delaware, port unspecified	20799	0.0000000	0.0000000	0	0	74
242	Delaware River	20801	-75.5197200	39.4202800	0	1	42
243	Eastern New Jersey	20802	-74.4264300	39.3627600	0	1	42
244	Milwell	20803	0.0000000	0.0000000	0	0	42
245	Perth Amboy	20804	-74.2657700	40.5064500	0	1	42
246	Wharton	20805	0.0000000	0.0000000	0	0	42
886	Burlington	20806	0.0001235	0.0001235	1	1	42
887	Newark	20807	-74.1723667	40.7356570	1	1	42
859	Cohanzie	20808	-75.2981210	39.4911690	1	1	42
247	New Jersey, port unspecified	20899	0.0000000	0.0000000	0	0	42
248	Marcus Hook	20901	0.0000000	0.0000000	0	0	43
249	Philadelphia	20902	-75.1642000	39.9522000	1	1	43
2133	Pittsburgh	20903	-79.9958800	40.4406200	1	1	43
250	Pennsylvania, port unspecified	20999	0.0000000	0.0000000	0	0	43
251	Annapolis	21001	-76.4852400	38.9498900	1	1	44
252	Baltimore	21002	-76.6125000	39.2903000	1	1	44
253	North Potomac	21003	-77.0272100	38.8521600	1	1	44
611	Oxford	21004	-76.2000000	38.7000000	1	1	44
254	Pamunkey	21005	-77.2044400	37.6691700	1	0	44
255	Patuxent	21006	-76.4512300	38.3089700	1	1	44
256	Talbot County	21007	0.0000000	0.0000000	0	0	44
257	Wye River	21008	-76.1800000	38.8582500	0	1	44
888	Cecil County	21009	-75.9463240	39.5739400	1	1	44
889	Choptank	21010	-76.3266150	38.6345640	1	1	44
890	Pocomoke	21011	-76.4074560	39.3510020	1	1	44
891	St. Mary's River	21012	-76.5398160	38.2499790	1	1	44
925	Londontowne	21013	-76.5580160	38.9357500	1	1	44
1049	Anne Arundel County	21014	-76.5488000	76.5488000	0	1	44
1283	Warwick	21015	NULL	NULL	0	1	44
1051	Kent County	21016	-76.1320000	39.2714000	0	1	44
1052	Calvert County	21017	-76.5026000	38.4950000	0	1	44
1053	Charles County	21018	-77.1025000	38.5222000	0	1	44
1054	Somerset County	21019	-75.8534000	38.0860000	0	1	44
1055	Frederick County	21020	-77.4702000	39.3845000	0	1	44
1056	Cambridge County	21021	-76.0788000	38.5632000	0	1	44
1057	Dorchester County	21022	-76.1784000	38.4153000	0	1	44
1058	St. Mary's County	21023	-76.3637000	38.1060000	0	1	44
1059	Snow Hill	21024	-75.3927000	38.1771000	0	1	44
1060	Port of Tobacco	21025	-77.0188000	38.5114000	0	1	44
1062	Eastern Shore	21027	-75.6848000	38.2102000	0	1	44
1463	Hollywood	21028	-76.5402260	38.3760970	1	1	44
2339	Nanjemoy	21029	38.4559000	-77.2643440	1	1	44
2340	Lower Cedar Point	21030	38.3430400	-76.9766000	1	1	44
2341	Nottingham	21031	-76.4108100	39.3841500	1	1	44
258	Maryland, port unspecified	21099	-76.4512300	38.3089700	0	1	44
259	Elizabeth River	21101	-76.3563700	36.9346900	1	0	45
260	Hampton	21102	-76.3456000	37.0297000	1	1	45
261	Lower James River	21103	-76.3829200	36.9500200	1	1	45
262	Norfolk	21104	-76.1932500	36.9329500	1	1	45
263	Northampton County	21105	0.0000000	0.0000000	0	0	45
264	Potomac river	21106	-76.2700000	37.9187300	0	1	45
265	Rappahannock	21107	-76.3881300	37.5982600	1	1	45
266	South Potomac	21108	-76.5207700	38.1039400	1	1	45
267	Upper James River	21109	-77.3806500	37.3972700	1	1	45
268	Williamsburg	21110	0.0000000	0.0000000	0	0	45
269	York River	21111	-76.4537600	37.2268000	1	1	45
270	Vatt (location undetermined)	21112	0.0000000	0.0000000	0	0	45
892	Accomac	21113	-75.6654840	37.7195740	1	1	45
893	Urbanna	21114	-76.5743980	37.6376400	1	1	45
945	Richmond (VA)	21115	-77.4360000	37.5407000	1	1	45
946	Hampton Roads	21116	-76.2971490	37.0480300	1	1	45
993	Alexandria	21117	-77.0469000	38.8048000	1	1	45
992	Petersburg	21118	-77.4019000	37.2279000	0	1	45
1063	Cumberland County	21119	-78.2460000	37.5175000	0	1	45
1065	Sussex County	21121	-77.2405000	36.9058000	0	1	45
1066	Eastern Shore	21122	75.8230000	37.5398000	0	1	45
1067	Elizabeth	21123	-81.3951000	39.0634000	0	1	45
1068	Buckingham	21124	-78.5545000	37.5518000	0	1	45
1069	Prince William County	21125	-77.6078000	38.7839000	0	1	45
1071	Lynchburg	21127	-79.1422000	37.4138000	0	1	45
1072	Gloucester County	21128	-76.5266000	37.4099000	0	1	45
1073	Leesburg	21129	-77.5630000	39.1157000	0	1	45
1074	Portsmouth	21130	-76.2983000	36.8354000	0	1	45
1075	Greensville County	21131	-77.6078000	36.6057000	0	1	45
1076	Halifax	21132	-78.9283000	36.7660000	0	1	45
1077	Essex County	21133	-76.9643000	37.9672000	0	1	45
1078	Hardy County	21134	-78.9288000	39.0416000	0	1	45
1079	Putnam County	21135	-81.9098000	38.4992000	0	1	45
1080	York County	21136	-76.3690000	37.2104000	0	1	45
1081	New Virginia	21137	NULL	NULL	0	1	45
1082	Mathews	21138	-76.3207000	37.4370000	0	1	45
1083	Jefferson County	21139	-77.8825000	39.3060000	0	1	45
1084	Kempsville	21140	-76.1602000	38.8268000	0	1	45
1085	Princess Anne	21141	-76.0541000	36.7508000	0	1	45
1086	Warwick County	21142	-77.4228000	37.4590000	0	1	45
1087	Yorktown	21143	-76.5097000	37.2388000	0	1	45
1216	Culpeper	21144	-77.9961000	38.4733000	0	1	45
1217	Dinwiddie County	21145	-77.5360000	37.0769000	0	1	45
1218	Albemarle County	21146	-78.6115000	38.0567000	0	1	45
2020	Jamestown	21147	-76.7752102	37.2116383	1	1	45
2148	Bermuda Hundred	21148	-77.2713700	37.3415400	1	1	45
2338	Georgetown	21149	-77.0296470	38.9096440	1	1	45
2342	Osborne's Landing	21150	-77.3806500	37.3972700	1	1	45
271	Virginia, port unspecified	21199	-76.4537600	37.2268000	0	1	45
272	Bertie County	21201	0.0000000	0.0000000	0	0	46
273	Chowan river	21202	-76.7061800	36.2428500	1	0	46
894	New Bern	21203	-77.0441143	35.1084930	1	1	46
274	Hyde County	21204	0.0000000	0.0000000	0	0	46
275	Roanoke	21205	-75.6495000	35.8836800	1	1	46
895	Beaufort	21206	-76.6638190	34.7182170	1	1	46
896	Brunswick	21207	-78.2020390	34.0275400	1	1	46
897	Cape Fear	21208	-78.4845740	34.7245080	1	1	46
898	Edenton	21209	-76.6077212	36.0579380	1	1	46
899	Wilmington	21210	-77.9447100	34.2257255	1	1	46
2121	Bridgeton	21211	-77.0207800	35.1215400	1	1	46
1136	Barnwell	21212	-81.3587000	33.2449000	0	1	46
1138	Halifax	21215	-77.5894000	36.3285000	0	1	46
1139	Elizabeth City	21216	-76.2510000	36.2946000	0	1	46
1140	Gates City/County	21217	-76.7699000	36.5038000	0	1	46
1141	Salisbury	21218	-80.4742000	35.6710000	0	1	46
1142	Hanover County	21219	-77.8825000	34.2155000	0	1	46
1143	Franklin County	21220	-78.2427000	36.0741000	0	1	46
1144	Granville County	21221	-78.6115000	36.2799000	0	1	46
1148	Asheville	21223	-82.5515000	35.5951000	0	1	46
1149	Pasquotank	21224	-76.3174000	36.2927000	0	1	46
1161	Randolph County	21225	-79.8297000	35.7450000	0	1	46
1162	Stokes County	21226	-80.2321000	36.4244000	0	1	46
1137	Fayetteville	21227	-78.8784000	35.0527000	0	1	46
1145	Jackson	21228	-77.4214000	36.3896000	0	1	46
1464	Portsmouth	21229	-76.0724020	35.0697200	1	1	46
276	North Carolina, port unspecified	21299	-75.6495000	35.8836800	0	1	46
277	Beaufort	21301	-80.6700000	32.4313900	1	1	47
278	Charleston	21302	-79.9355400	32.7809600	1	1	47
900	Georgetown	21304	-79.2938070	33.3674340	1	1	47
1323	Amelia Township	21305	-80.7800000	33.6700000	1	1	47
1322	Dorchester	21306	-80.1711600	32.9486000	1	1	47
1164	Darlington	21307	-79.8762000	34.2999000	0	1	47
1165	Greenville	21308	-82.3940000	34.8526000	0	1	47
1166	Camden	21309	-80.6070000	34.2465000	0	1	47
1272	Sumter	21310	-80.3415000	33.9204000	0	1	47
1271	Waccamaw	21311	-79.2945000	33.3768000	0	1	47
1270	Columbia County	21312	-81.0348000	34.0007000	0	1	47
1403	Aiken Co, SC	21314	NULL	NULL	1	1	47
1404	Edgefield County, SC	21315	NULL	NULL	1	1	47
1405	Richmond County, nr Augusta, SC	21316	NULL	NULL	1	1	47
1406	Augusta, SC	21317	NULL	NULL	1	1	47
720	South Carolina, place unspecified	21399	-79.9355400	32.7809600	0	1	47
279	Savannah	21401	-81.1000000	32.0833000	1	1	48
280	Sunbury	21402	0.0000000	0.0000000	0	0	48
797	Tybee Island	21403	-80.8456700	32.0002100	0	0	48
791	Cumberland Island,Georgia	21404	81.4484000	30.8511000	0	0	48
846	Jekyll Island	21405	-81.4216530	31.0511240	1	1	48
1095	Augusta	21406	-82.0105000	33.4735000	0	1	48
1097	Bainbridge	21407	-84.5755000	30.9038000	0	1	48
1098	Baker County	21408	-84.4803000	31.2816000	0	1	48
2344	Darien	21409	31.3676570	-81.4346780	0	0	48
1100	Blakely	21411	-84.9341000	31.3777000	0	1	48
1101	Burke County	21412	-81.9535000	33.0888000	0	1	48
1102	Columbus	21413	-84.9877000	32.4610000	0	1	48
1103	Crawford County	21414	-83.9744000	32.7091000	0	1	48
1104	Effingham	21415	-81.3839000	32.3781000	0	1	48
1105	Early County	21416	-81.3839000	32.3781000	0	1	48
1106	Fort Gaines	21417	-85.0472000	31.6091000	0	1	48
1107	Houston County	21418	-83.6348000	32.4220000	0	1	48
1108	Macon	21419	-83.6324000	32.8407000	0	1	48
1109	Madison	21420	-83.4679000	33.5957000	0	1	48
1110	Oglethorpe	21421	-84.0610000	32.2938000	0	1	48
1111	Monroe County	21422	-83.8897000	32.9747000	0	1	48
1112	Randolph County	21423	-84.6897000	31.7913000	0	1	48
1113	Thomas County	21424	-83.8473000	30.8417000	0	1	48
1114	Screven County	21425	-81.6035000	32.7075000	0	1	48
1115	Jones County	21426	-81.6035000	32.7075000	0	1	48
1116	Troup County	21427	-85.0233000	33.0699000	0	1	48
1117	Sanderville	21428	-82.8101000	32.9815000	0	1	48
1099	Fayette County	21429	-84.4803000	33.4502000	0	1	48
281	Georgia, port unspecified	21499	-81.1000000	32.0833000	0	1	48
282	St. Augustine	21501	-81.3147000	29.8944000	1	1	49
283	Pensacola	21502	-87.1815000	30.5581200	1	1	49
284	Amelia Island	21503	-81.4420000	30.6870000	1	1	49
782	Key West	21504	-81.7840300	24.5591700	1	1	49
901	Indian River	21505	0.0001235	0.0001235	1	1	49
902	East Florida	21506	0.0001235	0.0001235	1	1	49
987	Tampa	21507	-82.4572000	29.9506000	0	1	49
982	Apalachicola	21508	-84.9832000	29.7258000	0	1	49
983	St. Joseph	21509	-85.3030000	29.8119000	0	1	49
1284	Magnolia	21510	NULL	NULL	0	1	49
984	Port Leon	21511	-84.1950000	30.1308000	1	1	49
985	St. Marks, FL	21512	-84.2063000	30.1610000	1	1	49
986	Indianola	21513	-80.7145000	28.3964000	0	1	49
988	New Smyrna	21514	-80.9270000	29.0258000	0	1	49
989	Cedar Key	21515	-83.0351000	29.1386000	0	1	49
990	Jacksonville	21516	-81.6557000	30.3322000	0	1	49
991	St. Andrews	21517	-85.6948000	30.1463000	0	1	49
1286	South Port	21519	NULL	NULL	0	0	49
1001	Pawcatuck	21520	-71.8337000	41.3773000	0	1	49
1118	Madison County	21522	-83.5070000	30.4586000	0	1	49
1119	Benton County	21523	-82.6607000	30.4866000	0	1	49
1120	Columbia County	21524	-82.6051000	30.1813000	0	1	49
1121	Gadsen County	21525	-84.6479000	30.5563000	0	1	49
1123	Hernandez County	21527	-82.4753000	28.5579000	0	1	49
1124	Jackson County	21528	-85.1894000	30.7151000	0	1	49
1125	Hickstown	21529	-83.5070000	30.4586000	0	1	49
1126	Jefferson County	21530	-83.8897000	30.4312000	0	1	49
1127	Newport	21531	-82.7198000	28.2442000	0	1	49
1128	Quincy	21532	-84.5911000	30.5880000	0	1	49
1129	Washington County	21533	-85.6846000	30.5487000	0	1	49
1131	Tallahassee	21534	-84.2807000	30.4383000	1	1	49
1130	Woolsey	21535	-87.2883000	30.3557000	0	1	49
285	Florida, port unspecified	21599	-81.3147000	29.8944000	0	1	49
286	New Orleans	21601	-90.0666670	29.9544400	1	1	50
287	La Balise	21602	-89.1072000	29.1222000	1	1	50
288	Louisiana	21603	-92.6700000	29.5246800	0	1	50
289	Biloxi	21604	-88.9499300	30.3919500	1	1	50
290	Mississippi	21605	-89.2800000	30.3050100	0	1	50
291	Mobile	21606	-88.0430600	30.6944400	0	1	50
947	Vicksburg (MS)	21607	-90.8867140	32.3178380	1	1	50
1009	Alexandria, Rapides Parish	21608	-92.4451000	31.3113000	0	1	50
1010	Ascension Parish	21609	-90.9438000	30.2017000	1	1	50
1011	Assumption Parish	21610	-91.0969000	29.9233000	0	1	50
1012	Lafayette Parish	21611	-92.0198000	30.2241000	0	1	50
1048	Wilkinson County, MS	21612	-91.2891000	31.1646000	0	1	50
1013	Avoyelles Parish	21613	-92.0665000	30.9712000	0	1	50
1219	Macon County, AL	21614	-86.6846000	32.3731000	0	1	50
1015	Bayou Sara, West Feliciana Parish	21615	-91.3937242	30.7715718	0	1	50
2343	Pontchartrain	21616	30.1732180	-89.7485110	1	1	50
1017	Catahoula Parish	21617	91.9099000	31.7053000	0	1	50
1018	Claiborne Parish	21618	-93.0176000	32.7723000	0	1	50
1019	Donaldsonville, Ascension Parish	21619	-90.9929000	30.1010000	0	1	50
1020	East Baton Rouge Parish	21620	-91.0969000	30.5694000	0	1	50
1021	East Feliciana Parish	21621	-91.0203000	30.8459000	0	1	50
1220	Union Parish, LA	21622	-92.3814000	32.7859000	0	1	50
1022	Greenville, Jefferson County, MS	21623	-91.0377000	33.3997000	0	1	50
1023	Hempstead County, AR	21624	-93.6623000	33.6530000	0	1	50
1024	Huntsville, AL	21625	86.5861000	34.7304000	0	1	50
1025	Iberville Parish	21626	-91.4048000	30.2899000	0	1	50
1026	Jefferson Parish	21627	-90.1121000	29.6499000	0	1	50
1027	Lafourche Parish	21628	-90.5258000	29.6952000	0	1	50
1028	Livingston Parish	21629	-90.6773000	30.4340000	0	1	50
1094	Amite County, MS	21630	-90.8294000	31.1684000	0	1	50
1090	Adams County, MS	21631	-91.2891000	31.5305000	0	1	50
1091	Alabama (port unknown)	21632	-86.9023000	32.3182000	0	1	50
1030	Natchitoches Parish	21633	-93.1780000	31.6801000	0	1	50
1221	Warren County, MS	21634	-90.7913000	32.3989000	0	1	50
1407	Africatown AL	21635	NULL	NULL	1	1	50
1032	Orleans Parish	21636	-90.0715000	29.9511000	0	1	50
1033	Ouachita Parish	21637	-92.2237000	32.4272000	0	1	50
1034	Plaquemines Parish	21638	-89.4742000	29.3240000	0	1	50
1035	Porterville, AL	21639	-85.8208000	34.3212000	0	1	50
1036	Rapides Parish	21640	-92.5390000	31.1461000	0	1	50
1037	St. Bernard Parish	21641	-89.3227000	29.8798000	0	1	50
1038	St. Charles Parish	21642	-90.3372000	29.9274000	0	1	50
1039	St. Helena Parish	21643	-90.6773000	30.8022000	0	1	50
1040	St. James Parish	21644	-90.7913000	30.0179000	0	1	50
1041	St. John the Baptist Parish	21645	-90.4880000	30.1118000	0	1	50
1042	St. Landry Parish	21646	-92.0665000	30.6037000	0	1	50
1043	St. Martin Parish	21647	-91.7539000	30.2396000	0	1	50
1044	St. Mary Parish	21648	-91.4435000	29.5030000	0	1	50
1045	Washington Parish	21649	-90.0747000	30.8039000	0	1	50
1046	West Baton Rouge Parish	21650	-91.3276000	30.4751000	0	1	50
1047	West Feliciana Parish	21651	-91.4048000	30.8423000	0	1	50
1279	Baton Rouge, LA	21652	-91.1871000	30.4515000	1	1	50
1280	Clarke County, AL	21653	-87.7763000	31.7002000	0	1	50
1222	Natchez, MS	21654	-91.4032000	31.5604000	1	1	50
1223	Concordia Parish, LA	21655	-91.6372000	31.4809000	0	1	50
1224	Madison Parish, LA	21656	-91.2891000	32.4402000	0	1	50
1225	Point Coupee Parish, LA	21657	-91.5984000	30.6102000	0	1	50
1226	Cherokee County, AL	21658	-85.6846000	34.1665000	0	1	50
1227	Baulding, MS	21659	-89.0376000	32.0307000	0	1	50
1228	Brandon, MS	21660	-90.0014000	32.2789000	0	1	50
1229	Claiborne County, MS	21661	-90.9438000	31.9438000	0	1	50
1230	Columbus, MS	21662	-88.4273000	33.4957000	0	1	50
1231	Port Gibson, MS	21663	-90.9817000	31.9608000	0	1	50
1232	Franklin County, MS	21664	-90.8675000	31.4884000	0	1	50
1233	Greenwood, MS	21665	-90.1795000	33.5162000	0	1	50
1234	Hinds County, MS	21666	-90.3748000	32.2648000	0	1	50
1235	Jackson County, MS	21667	-88.5565000	30.4278000	0	1	50
1236	Jackson, MS	21668	-90.1848000	32.2988000	0	1	50
1408	Bigbee, Washington County	21669	NULL	NULL	1	1	50
1237	Carroll County, MS	21670	-89.9253000	33.5280000	0	1	50
1238	Lawrence County, MS	21671	-90.0747000	31.5370000	0	1	50
1239	Panola County, MS	21672	-89.9253000	34.4198000	0	1	50
1240	Vicksburg, MS	21673	-90.8779000	32.3526000	1	1	50
1241	Princetown, MS	21674	NULL	NULL	1	1	50
1242	Baldwin County, AL	21675	-87.7763000	30.6011000	0	1	50
1243	Monroe County, AL	21676	-87.4604000	31.5119000	0	1	50
1244	Lowndes County, AL	21677	-86.6611000	32.2215000	0	1	50
1245	Montgomery, AL	21678	-86.3077000	32.3792000	0	1	50
1246	Franklin, LA	21679	-91.5015000	29.7960000	0	1	50
1247	Mooresville, AL	21680	-87.3247000	31.5279000	0	1	50
1248	Perry County, AL	21681	-87.3016000	32.5989000	0	1	50
1249	Selma, AL	21682	-87.0211000	32.4074000	0	1	50
1250	Talledega, AL	21683	-86.1058000	33.4359000	0	1	50
1251	Shelby County, AL	21684	-86.6610000	33.3039000	0	1	50
1252	Wilcox County, AL	21685	-87.3414000	32.0105000	0	1	50
1253	Barbour County, AL	21686	-85.3550000	31.8173000	0	1	50
1254	Benton County, AL	21687	-86.8178000	32.3068000	0	1	50
1255	Cahaba, AL	21688	-87.1014000	32.3168000	0	1	50
1256	Monroe, LA	21689	-92.1193000	32.5093000	0	1	50
1257	Jackson, LA	21690	-91.2176000	30.8374000	0	1	50
1258	Attakapas, LA	21691	-91.0921000	29.8915000	0	1	50
1259	Grand Coteau, LA	21692	-92.0465000	30.4199000	0	1	50
1260	Thibodaux, LA	21693	-90.3229000	29.7958000	0	1	50
1261	Coosa County, AL	21694	-86.2197000	32.8898000	0	1	50
1262	Dallas County, AL	21695	-87.1423000	32.2332000	0	1	50
1263	Quincy, AL	21696	-87.7916000	30.8847000	0	1	50
1264	Henry County, AL	21697	-85.1894000	31.4469000	0	1	50
1265	Green County, AL	21698	-87.9335000	32.9718000	0	1	50
786	Gulf Coast, port unspecifed	21699	-92.6700000	29.5246800	0	0	50
292	Quebec	21701	-71.2500000	46.8000000	1	0	75
293	New Brunswick	21702	-65.2178000	46.7755600	1	0	75
294	St. John	21703	0.0000000	0.0000000	0	0	75
295	Newfoundland	21704	-57.4245700	48.3436400	1	0	75
296	Nova Scotia	21705	-63.8737300	44.8773700	1	0	75
297	Halifax	21706	-63.6000000	44.6500000	1	0	75
298	Mahone Bay	21707	-64.3075800	44.5664200	1	0	75
903	Roseway, NS	21708	-65.3497470	43.6332660	1	1	75
2346	Cape Breton	21709	-60.7829750	46.3012500	1	1	75
2026	Trois-Rivi?res	21710	-72.5539143	46.3461425	1	1	75
840	Canada, port unspecified	21799	0.0000000	0.0000000	0	0	75
948	Smithfield	21801	-85.2547350	38.3867620	1	1	96
949	Louisville	21802	-85.6667080	38.1780770	1	1	96
1132	Barton	21804	-85.4648000	37.7995000	0	1	96
1133	Frankfort	21805	-84.8733000	38.2009000	0	1	96
1134	Lexington	21806	-84.5037000	38.0406000	0	1	96
1135	Paris	21807	-84.2530000	38.2098000	0	1	96
950	Kentucky, port unspecified	21899	-84.2700000	37.8393000	1	1	96
299	Newport and Boston	21901	0.0000000	0.0000000	0	0	76
300	Newport and Salem	21902	0.0000000	0.0000000	0	0	76
301	New England	21903	-69.1700000	44.1228300	0	1	76
722	Carolinas	21904	-79.9355400	32.7809600	0	1	76
860	Washington, DC	21906	-77.0368707	38.9071923	1	1	76
1088	Arkansas (port unknown)	21907	-91.8318000	35.2010000	0	1	76
1089	Batesville, AR	21908	-91.6410000	35.7698000	0	1	76
1092	Albany	21909	NULL	NULL	0	1	76
1151	Columbus, MO	21912	-93.3908000	38.8586000	0	1	76
1152	Missouri - place unspecified	21913	-91.8318000	37.9643000	0	1	76
1153	St.Louis, MO	21914	-90.1994000	38.6270000	0	1	76
1154	Franklin, MO	21915	-91.1353000	38.3954000	0	1	76
1159	Ohio - place unspecified	21919	-82.9071000	40.4173000	0	1	76
1160	Indiana - place unspecified	21920	-86.1349000	40.2672000	0	1	76
1158	Greensboro	21921	NULL	NULL	1	1	76
1266	Quincy, OH	21922	-82.9071000	40.4173000	0	1	76
1267	California - place unspecified	21923	-119.4179000	36.7783000	1	1	76
1155	Paris, MO	21924	-92.0013000	39.4809000	0	1	76
1268	Cincinatti, OH	21925	-84.5120000	39.1031000	0	1	76
1269	Vermont - place unspecified	21926	-72.5778000	44.5588000	0	1	76
1156	Camden, AR	21927	-92.8343000	33.5846000	0	1	76
1282	Rock Creek, IL	21928	NULL	NULL	0	1	76
1070	Charleston, WV	21929	-81.6326000	38.3498000	0	1	76
2345	Jefferson Barracks	21930	-90.2830500	38.5064600	1	1	76
721	USA, location unspecified	21999	-79.9355400	32.7809600	0	1	76
951	Nashville	22001	-86.8128660	36.1499370	1	1	97
1168	Fayetteville	22002	-86.5706000	35.1520000	0	1	97
1273	Memphis	22004	-90.0490000	35.1495000	1	1	97
1170	Giles County	22005	-86.9824000	35.0895000	0	1	97
1171	Jackson County	22006	-85.6435000	36.4005000	0	1	97
1169	Shelby County	22007	-89.9253000	35.1269000	0	1	97
952	Tennessee, port unspecified	22099	-86.5804000	35.5175000	0	1	97
953	Woodville	22101	-94.4155000	30.7752000	0	1	98
994	Galveston	22102	-94.7977000	29.3013000	1	1	98
1029	Montgomery County	22103	-95.4778000	30.3213000	0	1	98
1093	Anderson	22104	-95.9925000	30.4877000	0	1	98
1096	Austin	22105	-97.7431000	30.2672000	0	1	98
2116	Aransas	22106	-96.9960900	28.0395400	1	1	98
1174	Houston	22107	-95.3698000	29.7604000	0	1	98
2117	Aransas Bay	22108	-96.9960900	28.0395400	1	1	98
1176	Independence	22109	-96.3464000	30.3192000	0	1	98
2118	Brazos	22110	-95.3793900	28.8786500	1	1	98
2119	Brazos River	22111	-95.3793900	28.8786500	1	1	98
2120	Brazos Santiago	22112	-97.1585800	26.0656300	1	1	98
1179	Bastrop	22113	-97.3153000	30.1105000	0	1	98
1180	Comal County	22114	-98.2213000	29.8106000	0	1	98
1181	Centreville	22115	-95.9783000	31.2580000	0	1	98
1182	Clinton	22116	-96.2358000	33.1035000	0	1	98
1183	Columbia	22117	-95.6452000	29.1439000	0	1	98
1184	Cuero	22118	-97.2892000	29.0939000	0	1	98
1185	Fayette County	22119	-96.8351000	29.8896000	0	1	98
1186	Fort Graham	22120	-98.5895000	33.1071000	0	1	98
1187	Foster County	22121	-95.8322000	29.6505000	0	1	98
1188	Freestone County	22122	-96.1527000	31.7535000	0	1	98
1189	Goliad	22123	97.3883000	28.6683000	0	1	98
1191	Gonzales	22124	-97.4525000	29.5016000	0	1	98
1190	Grimes County	22126	-95.9833000	30.4830000	0	1	98
1192	Guadalupe	22127	-97.8722000	29.6477000	0	1	98
1193	Harris County	22128	-95.3103000	29.7752000	0	1	98
1194	Henderson, Rusk County	22129	-94.8106000	32.1742000	0	1	98
1195	Huntsville	22130	-95.5508000	30.7235000	0	1	98
1196	Port Lavaca	22131	-96.6261000	28.6150000	0	1	98
1197	Leon County	22132	-95.9833000	31.2153000	0	1	98
1198	Lexington	22133	97.0117000	30.4191000	0	1	98
2124	Harrisburg	22134	-95.2601500	29.7185200	1	1	98
2125	Indian Point	22135	-96.5241400	28.5566600	1	1	98
1199	Liberty County	22136	-94.8106000	30.1634000	0	1	98
1200	Lubbock County	22137	-101.7980000	33.6754000	0	1	98
1201	Matagorda	22138	-95.9683000	28.6911000	0	1	98
2126	Indianola	22140	-96.4874700	28.5119400	1	1	98
1203	New Braunfels	22141	-98.1245000	29.7030000	0	1	98
1204	Fort Bend	22142	-95.8143000	29.5693000	0	1	98
2127	La Salle	22143	-96.6694900	28.7920700	1	1	98
2128	Laureles	22144	-97.4941500	26.1092400	1	1	98
1207	Polk County	22145	-94.8106000	30.7151000	1	1	98
1208	Newton County	22146	-93.6623000	30.9360000	0	1	98
1209	Victoria County	22147	-97.0068000	28.7713000	0	1	98
1210	Waco	22148	-97.1467000	31.5493000	0	1	98
2129	Lavaca Bay	22149	-96.5249700	28.5980200	1	1	98
1211	Washington County	22150	-96.3652000	30.2353000	0	1	98
1212	Richmond	22151	-95.7608000	29.5822000	0	1	98
2130	Linn's Landing	22152	-96.6183100	28.6424800	1	1	98
2131	Linnville	22153	-96.6183100	28.6424800	1	1	98
1213	Victoria	22154	-97.0036000	28.8053000	0	1	98
1214	Woodbury County	22155	-97.2308000	32.0496000	0	1	98
1178	Corpus Christi	22156	-97.3964000	27.8006000	0	1	98
1177	Brazoria	22157	-95.5691000	29.0444000	0	1	98
1206	San Antonio	22158	-98.4936000	29.4241000	1	1	98
1274	Dallas County	22159	-96.8351000	32.8025000	0	1	98
1275	Milam County	22160	-96.9795000	30.8093000	0	1	98
1276	Chapel Hill	22161	-96.2572000	30.1425000	0	1	98
1277	Wharton	22162	-96.1027000	29.3116000	0	1	98
1278	San Jacinto	22163	-95.1432000	30.5188000	0	1	98
2132	Matagorda Bay	22164	-96.3013400	28.5504700	1	1	98
2134	Port Caddo	22165	-94.1767400	32.6824100	1	1	98
2135	Port Isabel	22166	-97.2085800	26.0734100	1	1	98
2136	Powderhorn	22167	-96.5169700	28.4909000	1	1	98
2137	Quintana	22168	-95.3082700	28.9333000	1	1	98
2138	Rio Grande	22169	-97.1469800	25.9558200	1	1	98
2139	Sabine	22170	-93.9399400	29.8849500	1	1	98
2140	Sabine City	22171	-93.9399400	29.8849500	1	1	98
2141	Sabine Lake	22172	-93.8371400	29.8877600	1	1	98
2142	Sabine Pass	22173	-93.9399400	29.8849500	1	1	98
2143	Sabine River	22174	-93.8382800	29.6915900	1	1	98
2144	Saluria	22175	-96.6195700	28.6413800	1	1	98
2145	St. Joseph's Island	22176	-96.9101800	28.0438900	1	1	98
2147	Velasco	22177	-95.3424200	28.9282400	1	1	98
2149	Pass Cavallo	22178	-96.3965530	28.3789670	1	1	98
954	Texas, port unspecified	22199	-99.9018000	31.9686000	0	1	98
1409	California, place unspecified	23099	-122.4194100	37.7749200	1	1	102
302	Isabela	31102	-71.2500000	18.4500000	0	1	90
303	Monte Christi	31103	-71.6500000	19.8666700	1	1	90
304	Samana	31104	-69.3200000	19.2166700	0	1	90
829	San Domingo (a) Santo Domingo	31106	0.0000000	0.0000000	0	0	90
824	Ocoa	31107	0.0000000	0.0000000	0	0	90
825	Nizao	31108	0.0000000	0.0000000	0	0	90
826	Puerto de Plata	31109	0.0000000	0.0000000	0	0	90
827	Isla Saona	31110	0.0000000	0.0000000	0	0	90
819	Hispaniola, unspecified	31199	-69.9000000	18.4666700	1	1	90
305	San Juan	31201	-66.1057200	18.4663300	0	1	11
943	Ponce	31202	-66.6141000	18.0111000	1	1	11
975	Guayama	31203	66.1138000	17.9841000	1	1	11
976	San Germ?n	31204	-67.0411070	18.0807080	1	1	11
734	Puerto Rico, port unspecified	31299	-66.1057200	18.4663300	1	1	11
306	Bahia Honda	31301	-83.1591700	22.9036100	1	1	12
307	Banes	31302	-75.7186100	20.9625000	1	1	12
308	Cabanas	31303	-82.9219400	22.9758300	1	1	12
309	Caibarien	31304	-79.4669400	22.5205600	0	1	12
310	Canas?	31305	-81.7813900	23.1125000	1	1	12
311	Cardenas	31306	-81.2047200	23.0375000	1	1	12
312	Cienfuegos	31307	-80.4355600	22.1461100	1	1	12
775	Cuba, south coast	31308	-75.7381100	19.9507600	1	1	12
313	Cuba, west coast	31309	-83.3802700	22.9194500	1	1	12
314	Estuary of River Guane	31310	-84.0838900	22.2005600	0	1	12
315	Guanimar	31311	-82.6536100	22.6883300	1	1	12
316	Havana	31312	-82.3641700	23.1319400	1	1	12
317	Isla de Pinas	31313	-82.8240500	21.6833100	1	1	12
318	Magari, Manzanillo	31314	-77.1166700	20.3433300	1	1	12
319	Mariel	31315	-82.7536100	22.9875000	1	1	12
320	Matanzas	31316	-81.5775000	23.0411100	1	1	12
321	Matanzas province, north	31317	-81.5775000	23.0411100	0	1	12
322	Matanzas province, south	31318	-81.5775000	23.0411100	0	1	12
323	Nuevitas	31319	-77.2644400	21.5452800	0	1	12
324	Puerto Padre	31320	-76.6027800	21.1950000	1	1	12
325	Sagua	31321	-80.0755600	22.8066700	1	1	12
326	San Juan de los Remedios	31322	-79.5458300	22.4947200	1	1	12
327	Santiago de Cuba	31323	-75.8219400	20.0247200	1	1	12
328	Trinidad de Cuba	31324	-79.9841700	21.8019400	1	1	12
799	Bataban?	31326	0.0000000	0.0000000	0	0	12
828	Baracoa	31327	0.0000000	0.0000000	0	0	12
830	Punta Macurijes	31328	-78.4866670	21.0280560	0	0	12
861	South Keys	31329	0.0001235	0.0001235	1	1	12
862	Puerto Principe	31330	0.0001235	0.0001235	1	1	12
863	Holgu?n	31331	0.0001235	0.0001235	1	1	12
974	Bacuranao	31332	-82.2398240	23.1744830	1	1	12
2033	San Jose	31333	-79.2707781	22.1902849	1	1	12
2034	San Lazaro, Havana	31334	-82.3689584	23.1411381	1	1	12
735	Cuba, port unspecified	31399	-79.2219910	22.3991500	0	1	12
864	San Andr?s	31401	0.0001235	0.0001235	1	1	91
820	Spanish Caribbean, unspecified	31499	-69.9000000	18.4666700	0	1	91
329	Cura?ao	32110	-68.9166700	12.1000000	1	1	40
2035	Willemstad	32111	-68.8824233	12.1224221	1	1	40
330	Aruba	32120	-70.0333300	12.5166700	0	1	40
726	Bonaire	32130	-68.5000000	12.2000000	0	1	40
331	St. Maarten	32140	-63.0333300	18.1000000	1	1	40
332	Cul de Sac (St. Maarten)	32141	-63.0300000	18.1000000	0	1	40
333	St. Eustatius	32150	-62.9833300	17.4666700	1	1	40
955	Saba	32151	-63.2491900	17.6259000	1	1	40
334	Dutch Caribbean, colony unspecified	32199	-68.9166700	12.1000000	0	1	40
335	Guiana	32201	-55.6759900	5.9585900	0	1	39
336	Nova Zeelandia (Wild Coast)	32202	-55.6759900	5.9585900	0	1	39
337	Essequibo	32230	-58.3547900	7.0439600	1	1	39
762	Suriname, place unspecified	32240	-55.6759900	5.9585900	1	1	39
338	Paramaribo	32241	-55.1666700	5.8333300	1	1	39
607	Berbice	32250	-57.9300000	6.6713000	1	1	39
339	Dutch Guianas, colony unspecified	32299	-55.6759900	5.9585900	0	1	39
956	Bijsterpan	32301	0.0001235	0.0001235	0	1	77
340	Other Dutch Americas, colony unspecified	32399	0.0000000	0.0000000	0	0	77
736	Tortola, port unspecified	33299	-64.7200000	18.3473200	1	1	13
341	Anguilla, port unspecified	33399	-63.0500000	18.2166700	0	1	78
764	Saint John (Antigua)	33401	-61.8500000	17.1166700	1	1	14
865	Barbuda	33402	-61.7707290	21.3983180	1	1	79
342	Antigua, place unspecified	33499	-61.8500000	17.1166700	0	1	14
727	St. Kitts, port unspecified	33599	-62.7166700	17.3000000	1	1	15
765	Newcastle (Nevis)	33601	-62.5833300	17.2000000	1	1	16
343	Nevis, port unspecified	33699	-62.5833300	17.2000000	0	1	16
737	Montserrat, port unspecified	33799	-62.2166700	16.7000000	1	1	17
904	Roseau	33801	-61.3793554	15.3091676	1	1	18
905	St. Marc	33802	-61.3443520	15.2195920	1	1	18
738	Dominica, place unspecified	33899	-61.4000000	15.3000000	1	1	18
739	St. Lucia, port unspecified	34199	-61.0000000	14.0000000	1	1	19
344	King's Harbour	34201	-59.6200000	13.1000000	0	1	20
906	Speightstown	34202	-59.6377130	13.2531230	1	1	20
728	Barbados, place unspecified	34299	-59.6000000	13.1000000	1	1	20
740	St. Vincent, port unspecified	34399	-61.2166700	13.1333300	1	1	21
1354	Grand Mal	34401	-61.7500000	12.0667000	1	1	22
1355	Paraelek	34402	-61.7500000	12.0500000	1	1	22
1356	Corinth	34403	-61.6773000	12.0360000	1	1	22
1357	Palmish	34404	-61.7333000	12.1333000	1	1	22
1358	Morne Delue	34405	-61.7140000	12.0338000	1	1	22
1359	Providence	34406	-61.6667000	12.0500000	1	1	22
1360	Clarkes Court	34407	-61.7397790	12.0258880	1	1	22
1361	Bellevue	34408	-61.6500000	12.0500000	1	1	22
1362	Revolution Hall	34409	-61.7333304	12.1666660	1	1	22
1363	St George	34410	-61.7488000	12.0560970	1	1	22
1364	St. Cyr	34411	-61.6500000	12.1167000	1	1	22
1365	Resource	34412	-61.6745946	12.2111650	1	1	22
1366	Hope Vale	34413	-61.7157000	12.0283000	1	1	22
1367	Hermitage	34414	-61.6354000	12.1766000	1	1	22
1368	Grand Ance	34415	-61.7571000	12.0240000	1	1	22
1369	L'Esterre and Columbiere	34416	-61.4830000	12.4717000	1	1	22
1370	Union	34417	-61.6705000	12.2018000	1	1	22
1371	Balthazard	34418	-61.6556000	12.1245000	1	1	22
1372	Bacolets and Isle Rhome	34419	-61.6850000	12.0234000	1	1	22
1373	River Antoine and Mount Saint Harg	34420	-61.6071000	12.1771000	1	1	22
1374	Mount Alexander	34421	-61.7500000	12.0500000	1	1	22
1375	Goodson	34422	-61.7500000	12.0500000	1	1	22
1376	Caliving	34423	-61.7264400	11.9961850	1	1	22
1377	Fontenoy	34424	-61.7528000	12.0686000	1	1	22
1378	Adelphi	34425	-61.6766000	12.1099000	1	1	22
1379	Rose Mount	34426	-61.6766000	12.1099000	1	1	22
1380	Mount Pleasant	34427	NULL	12.1062000	1	1	22
1381	Point Saline	34428	-61.8018000	12.0030000	1	1	22
1382	Snell Hall	34429	-61.8018000	12.0030000	1	1	22
1383	La Digue	34430	-61.6330000	12.1000000	1	1	22
1384	Morne Salone	34431	-61.7500000	12.0500000	1	1	22
1385	Carriacou	34432	-61.4362300	12.4848500	1	1	22
1386	Windsor	34433	-61.6667000	12.1333000	1	1	22
1387	Beausefour	34434	-61.7469000	12.0916000	1	1	22
1388	Kettle Point	34435	-61.7500000	12.0500000	1	1	22
1389	Springs	34436	-61.7442000	12.0408600	1	1	22
1390	Vend?me	34437	-61.7130000	12.0821000	1	1	22
1391	Florida	34438	-61.7000000	12.1500000	1	1	22
1392	Carmile	34439	-61.7500000	12.0500000	1	1	22
741	Grenada, place unspecified	34499	-61.7500000	12.0500000	1	1	22
742	Trinidad, port unspecified	34599	-61.5166700	10.6500000	1	1	23
345	Zion Hill	34601	-60.6166700	11.2333300	1	1	24
346	Tobago, port unspecified	34699	-60.6666700	11.2500000	0	1	24
347	Annotto Bay	35101	-76.7666700	18.2666700	0	1	25
348	Antonia	35102	-76.4666700	18.1833300	1	1	25
349	Black River	35103	-77.8500000	18.0166700	1	1	25
350	Falmouth (Jam.)	35104	-77.6500000	18.5000000	1	1	25
351	Lucea (a) St. Lucea	35105	-78.1666700	18.4500000	1	1	25
352	Martha Brae	35106	-77.6500000	18.4666700	1	1	25
353	Montego Bay	35107	-77.9166700	18.4666700	1	1	25
354	Morant Bay	35108	-76.4200000	17.8833300	0	1	25
355	Port Maria	35109	-76.9000000	18.3666700	1	1	25
776	Port Royal	35110	-76.9200000	17.9333000	1	1	25
356	Saint Ann's Bay	35111	-77.2000000	18.4333300	1	1	25
357	Savanna la Mar	35112	-78.1333300	18.2166700	1	1	25
358	Spanish Town	35113	-76.9500000	17.9833300	0	1	25
359	Kingston	35114	-76.8000000	17.9833333	1	1	25
1339	Smoaky Hall Plantation Trelawny	35116	-77.6333308	NULL	1	1	25
1342	Hide Hall Estate Trelawny	35117	-78.0623600	18.4029500	1	1	25
1343	Hopewell Estate	35118	-78.0166666	18.4499982	1	1	25
1344	Dumfries	35119	-76.7642000	18.1805000	1	1	25
1352	Queenbithe Estate	35120	NULL	NULL	1	1	25
1353	Killbryde, New Canaan Estate	35121	NULL	NULL	1	1	25
360	Jamaica, place unspecified	35199	-76.8000000	18.0000000	0	1	25
361	New Providence	35201	-77.3968300	24.9936400	1	1	26
362	Turk's Island	35202	-71.1166700	21.4000000	0	1	26
363	Nassau	35203	-77.3810800	25.0760600	1	1	26
907	Cat Island	35204	0.0001235	0.0001235	1	1	26
908	Exuma	35205	-75.9695460	23.6192600	1	1	26
909	Heneague	35206	0.0001235	0.0001235	1	1	26
773	Bahamas, port unspecified	35299	-78.7000000	26.5333300	0	1	26
364	Cumingsberg	35301	-58.1666700	6.8166700	1	1	27
365	Stabroek	35302	-58.1500000	6.8166700	0	1	27
366	Demerara	35304	-58.1687110	6.8102040	1	1	27
367	Kingston (Demerera)	35305	-58.1700000	6.8166700	0	1	27
834	British Guina, port unspecified	35399	0.0001235	0.0001235	1	1	27
368	Mosquito Shore	35401	-83.3833300	14.0333300	0	1	51
370	British Honduras, port unspecified	35499	-88.1886110	17.4986110	0	1	51
371	Antigua or Dominica	35502	0.0000000	0.0000000	0	0	79
372	Barbados and Jamaica	35503	0.0000000	0.0000000	0	0	79
373	Dominica or Jamaica	35504	0.0000000	0.0000000	0	0	79
374	Jamaica or St. Kitts	35505	0.0000000	0.0000000	0	0	79
375	British Leewards	35507	-63.0500000	18.2166700	0	1	79
767	Bermuda	35508	-64.7838900	32.2941700	0	1	79
766	Hamilton (Bermuda)	35509	-64.7838900	32.2941700	1	1	79
910	Becquia	35510	-61.2272310	13.0117060	1	1	79
911	Grand Caymans	35511	-81.2408690	19.3221700	1	1	79
912	Providence Island	35512	-81.3729370	13.3387610	1	1	91
376	British Caribbean, colony unspecified	35599	-76.8000000	18.0000000	0	1	79
377	Fort-Royale	36101	-61.0833300	14.6000000	0	1	28
378	Saint-Pierre	36102	-61.1666700	14.7333300	0	1	28
778	Martinique, place unspecified	36199	-61.1666700	14.6333300	1	1	28
379	Basse-Terre	36201	-61.7166700	16.0000000	1	1	29
380	Pointe-?-Pitre	36202	-61.5166700	16.2333300	1	1	29
381	Marie-Galante	36203	-61.2666700	15.9333300	0	1	29
957	Grande-Terre, port unspecified	36204	-61.4669000	16.2732000	1	1	29
729	Guadeloupe, place unspecified	36299	-61.7166700	16.0000000	0	1	29
382	Cayenne	36301	-52.3333300	4.9333300	1	1	30
383	Oyapock	36302	-51.8000000	3.9000000	0	1	30
841	French Guiana, port unspecified	36399	0.0000000	0.0000000	0	0	30
384	Tortuga	36401	-72.7866700	20.0463400	1	1	31
612	Arcahaie	36402	-72.5125000	18.7694400	0	1	31
613	Cap Fran?ais	36403	-72.2040000	19.7500000	1	1	31
385	Cayes (Les)	36404	-73.7500000	18.2000000	1	1	31
386	Cul-de-Sac	36405	-72.3666700	19.0666700	1	1	31
387	Fort Dauphin	36406	-71.8397200	19.6677800	1	1	31
388	Jacmel	36407	-72.5347200	18.2341700	1	1	31
389	J?r?mie	36408	-74.1166700	18.6500000	1	1	31
390	L?ogane	36409	-72.6338900	18.5108300	1	1	31
617	M?le Saint Nicolas	36410	-73.3800000	19.8000000	0	1	31
391	Petit-Go?ve	36411	-72.8669400	18.4313900	1	1	31
392	Port-au-Prince	36412	-72.3350000	18.5391700	1	1	31
393	Port-de-Paix	36413	-72.8308700	19.9327600	1	1	31
394	Saint-Marc	36414	-72.7000000	19.1166700	1	1	31
792	?le ? Vache	36415	-73.6512000	18.0694000	0	0	31
913	Cap Tiberon	36416	0.0001235	0.0001235	1	1	31
848	Gona?ve	36420	72.6801580	19.4511500	1	1	31
1334	Aribonite	36421	NULL	NULL	1	1	31
1325	Morne Rouge	36422	-72.4598000	19.2011000	1	1	31
1326	le Mustic (Moustique)	36423	-72.9666670	19.9166670	1	1	31
1327	Boucassin	36424	-72.4200000	18.7300000	1	1	31
1324	L'Est?re	36425	-72.6821300	19.4497400	1	1	31
1329	Mont. de Chanteloup	36426	NULL	NULL	1	1	31
1330	Port-Margot	36427	-72.4295130	19.7517170	1	1	31
1331	Chicahominy	36428	NULL	NULL	1	1	31
1328	Dondon	36429	-72.2437810	19.5269650	1	1	31
1332	Longemalle (Habitation)	36430	NULL	NULL	1	1	31
1333	Limonade	36431	-72.1252800	NULL	1	1	31
1335	Fond	36432	-73.1305350	18.2799280	1	1	31
1336	Ouanaminthe	36433	-71.7296250	19.5473720	1	1	31
1337	Charbonniere	36434	-74.1643650	18.2746510	1	1	31
1338	Nippes	36435	-73.0999996	NULL	1	1	31
1340	Belair	36436	-72.3333300	18.5500000	1	1	31
1341	Boucan-Champagne	36437	NULL	NULL	1	1	31
1345	Petite Anse	36438	-73.1549900	19.6301100	1	1	31
1346	Rue Bourbon	36439	-72.5360860	18.2355180	1	1	31
1347	Grand Co?ve	36440	-72.7682000	18.4283000	1	1	31
1348	Bon Repos	36442	NULL	18.6257000	1	1	31
1349	Port ? l'?cu	36443	-73.0400000	19.9060000	1	1	31
1350	Belair, rue de Vaudreuil	36444	NULL	NULL	1	1	31
1351	Fond-d'Icaques	36446	-79.9300000	18.5400000	1	1	31
395	Saint-Domingue, then Haiti, port unspecified	36499	-72.2041700	19.7577800	0	1	31
396	French Caribbean, colony unspecified	36599	-72.2041700	19.7577800	0	1	80
730	St. Croix	37010	-64.8200000	17.7730500	1	1	61
731	St. Thomas	37020	-64.9400000	18.3414100	1	1	61
914	St. John (Virgin Islands)	37030	-64.7399494	18.3274718	1	1	61
921	Spanish Town, Virgin Islands	37040	-64.4304110	18.4498530	1	1	61
614	Danish West Indies, colony unspecified	37099	-64.8000000	18.0200000	0	1	61
793	Gustavia, St. Barth?lemy	38101	-62.8317000	17.9002000	0	0	52
777	St. Barth?lemy, port unspecified	38199	-62.8333300	17.9000000	1	1	52
397	Caribbean (colony unspecified)	39001	-70.0000000	20.0000000	0	1	81
866	Orici	39003	0.0001235	0.0001235	1	1	81
867	Bottomaneau	39004	0.0001235	0.0001235	1	1	81
915	Bottomaneau (location undetermined)	39040	0.0001235	0.0001235	1	1	89
842	Caribbean, port unspecified	39999	0.0000000	0.0000000	0	0	81
618	New Spain, port unspecified	41201	-87.6097570	18.9832080	0	1	92
399	Campeche	41202	-90.5333300	19.8500000	1	1	92
822	Veracruz	41203	-96.1300000	19.1700000	1	1	92
774	Guatemala	41204	-88.7000000	15.8000000	1	1	92
400	Santo Tomas	41205	-88.6166700	15.7000000	0	1	92
401	Portobelo	41206	-79.6500000	9.5500000	1	1	92
402	Cartagena	41207	-75.5144400	10.3997200	1	1	92
403	Santa Marta	41208	-74.2016700	11.2472200	1	1	92
404	Venezuela, port unspecified	41210	-67.9644400	10.4452800	0	1	92
405	Borburata	41211	-67.9644400	10.4452800	0	1	92
406	Caracas	41212	-66.9166700	10.5000000	1	1	92
407	Cumana	41213	-64.1666700	10.4666700	1	1	92
823	La Guaira	41214	-66.9333000	10.6000000	1	1	92
772	Margarita	41215	-64.0800000	10.9500000	0	1	92
408	Orinoko	41216	-60.5400000	8.8634300	0	1	92
409	Rio de la Hacha	41217	-72.9072200	11.5444400	1	1	92
916	Darien	41218	0.0001235	0.0001235	1	1	92
831	Nombre de Dios	41219	-79.4703100	9.5828900	1	1	92
917	Rattan (a) Roat?n	41220	-86.5299670	16.3297610	1	1	92
922	Puerto Cabello	41221	-68.0298650	10.4697690	1	1	92
868	Isla de Aves	41222	-63.6166670	15.6833330	1	1	92
869	Coro	41223	-69.6700000	11.4000000	1	1	92
870	Maracaibo	41224	-71.6100000	10.6700000	1	1	92
871	Nueva Barcelona	41225	-64.6900000	10.1400000	1	1	92
932	Guayana, Venezuela	41226	-61.0000000	8.5800000	1	1	92
936	Caracas Coast and Tucacas	41227	-66.9166700	10.5000000	1	1	92
937	San Juan de los Cayos	41228	-68.4099000	11.1738000	1	1	92
2051	Tortuga Island, Venezuela	41229	-65.1817400	10.5532390	1	1	92
2053	San Felipe	41231	-114.8407776	31.0250709	1	1	92
2054	El Salvador	41232	-88.8965300	13.7941850	1	1	92
369	Trujillo, Honduras	41252	-85.9534470	15.9116790	1	1	92
978	Puerto de Caballos (Puerto Cortes)	41253	-87.9286000	15.8251000	1	1	92
979	Panama, Port unspecified	41297	-79.6000000	9.5000000	1	0	92
935	Honduras, port unspecified	41298	-86.7919010	15.7702880	1	1	92
821	Spanish Circum-Caribbean,unspecified	41299	-75.4794260	10.3910490	0	1	92
410	Buenos Aires	42001	-58.3808460	-34.5746250	1	1	32
411	Montevideo	42002	-56.1708300	-34.8580600	1	1	32
412	Colonia de Sacramento	42003	-57.8500000	-34.4667000	0	1	32
413	Maldonado	42004	-54.9500000	-34.9000000	0	1	32
928	R?o Negro	42005	-62.8141666	-41.0216666	1	1	32
1410	Buceo	42006	-56.1281700	-34.8981000	1	1	32
958	Punta del Este	42007	-54.9500000	-34.9666700	0	1	32
2031	Arequipa	42008	-71.5374510	-16.4090474	1	1	32
2150	Asunci?n	42014	-57.5759200	-25.2637300	1	1	32
2151	Concepci?n del Uruguay	42015	-58.2321400	-32.4845300	1	1	32
2152	Curupaity	42016	NULL	NULL	1	1	32
2153	Gualeguay	42017	-59.3104600	-33.1503200	1	1	32
2154	Humait?	42018	-58.5058200	-27.0668600	1	1	32
414	Rio de la Plata, port unspecified	42099	0.0000000	0.0000000	0	0	32
2062	Peru	43000	-75.0151520	-9.1899670	1	1	82
415	Lima	43001	0.0000000	0.0000000	0	0	82
2064	Ica, Peru	43002	-75.7375844	-14.0789231	1	1	82
843	Peru, port unspecified	43099	0.0000000	0.0000000	0	0	82
959	Valparaiso	44001	-71.6127000	-33.0472000	0	1	99
960	Talcahuano	44002	-73.1170000	-36.7248000	0	1	99
2393	Fortress Sant?sima Trinidad	44003	NULL	NULL	1	1	99
961	Ecuador, port unspecified	45099	-79.9224000	-2.1710000	0	1	100
980	Panama City	46001	-79.5199000	8.9824000	1	1	101
1411	Portos do Norte	50101	-48.5012900	-1.4563400	1	1	33
623	Maranh?o	50102	-44.2666700	-2.5166700	1	1	33
416	Par?	50103	-48.4833300	-1.4500000	1	1	33
417	Guajano	50104	0.0000000	0.0000000	0	0	33
418	Rio Amazona	50105	0.0000000	0.0000000	0	0	33
938	Cear?, port unspecified	50106	-38.4928760	-3.8031930	0	0	33
940	Macap?	50107	-51.0705350	0.0355740	0	0	33
939	Bel?m	50108	-48.4901970	-1.4557790	0	0	33
971	S?o Luis	50109	-44.2829000	-2.5391000	1	1	33
972	Aracaty	50110	-37.7689000	-4.5612000	1	1	33
973	Tapaj?	50111	NULL	NULL	0	0	33
2155	Manaus	50112	-60.0217300	-3.1190200	1	1	33
844	Amazonia, port unspecified	50199	0.0000000	0.0000000	0	0	33
419	P?rto Seguro	50201	-39.2641800	-16.4441670	0	1	34
420	Rio Real	50202	-37.3666700	-11.4500000	0	1	34
421	Rio S?o Francisco	50203	-38.2604000	-9.3319000	0	1	34
771	Taipu	50204	-35.6000000	-5.6166700	0	1	34
1412	Alcoba?a	50205	-39.1931300	-17.5278500	1	1	34
1413	Aldeia Velha	50206	-39.0162700	-13.9645100	1	1	34
1414	Aracaju	50207	-37.0729000	-10.9266500	1	1	34
1415	Belmonte	50208	-38.8798200	-15.8612300	1	1	34
1416	Boaventura	50209	-38.3067700	-12.8265600	1	1	34
1417	Canavieiras	50210	-38.9451800	-15.6773400	1	1	34
1418	Caravelas	50211	-39.2652700	-17.7337600	1	1	34
1419	Caravelas, Mucuri e Vit?ria	50212	-39.2652700	-17.7337600	1	1	34
1420	Est?ncia	50213	-37.4392100	-11.2706500	1	1	34
1421	Ilh?us	50214	-39.0346900	-14.7981200	1	1	34
1422	Laranjeiras	50215	-37.1670700	-10.8047100	1	1	34
1423	Mucuri	50216	-39.5499700	-18.0833900	1	1	34
1424	Rio Cotinguiba	50217	-37.0679500	-10.8227400	1	1	34
1425	Santa Cruz	50218	-39.0236200	-16.2825200	1	1	34
1426	Sergipe, place unspecified	50219	-37.0729000	-10.9266500	1	1	34
1427	Valen?a	50220	-39.0720500	-13.3700100	1	1	34
1428	Vila Vi?osa	50221	-39.3660200	-17.9020800	1	1	34
2156	Maguay	50222	NULL	NULL	1	1	34
2157	Prado	50223	-39.2250500	-17.3340700	1	1	34
732	Bahia, place unspecified	50299	-38.5108300	-12.9711100	1	1	34
422	Alagoas, place unspecified	50301	-35.8500000	-9.7836200	0	1	35
423	Ilha de Itamarac?	50302	-34.8506400	-7.7577200	1	1	35
424	Macei?	50303	-35.7200000	-9.6666700	0	1	35
425	Catuamo and Maria Farinha	50304	-34.8333300	-7.8500000	1	1	35
426	Porto de Galinhas	50305	-34.8811100	-8.0538900	0	1	35
427	Para?ba	50306	-34.9421600	-6.7802700	1	1	35
428	Rio Grande do Norte	50307	-35.2094400	-5.7950000	0	1	35
1429	A?u	50308	-36.7059800	-5.0856900	1	1	35
429	Fernando de Noronha	50309	0.0000000	0.0000000	0	0	35
1430	Patacho	50310	-35.3149700	-9.1961700	1	1	35
962	Recife	50311	-34.9286000	-8.0522000	0	1	35
1431	Rio Para?ba do Norte	50312	-34.8431400	-6.9616100	1	1	35
2071	Olinda	50313	-34.8422297	-7.9920228	1	1	35
2158	Penedo	50314	-36.5839200	-10.2889600	1	1	35
2159	Vila Bela	50315	NULL	NULL	1	1	35
2364	Morro de Camaragibe	50316	-35.4233320	-9.3189526	1	1	35
733	Pernambuco, place unspecified	50399	-34.8811100	-8.0538900	1	1	35
430	Ba?a de Botafogo	50402	-43.2333300	-22.9000000	0	1	36
431	Ba?a de Sepetiba	50403	-43.7008300	-22.9816700	0	1	36
432	Cabo de B?zios	50404	-41.9600000	-22.7700000	1	1	36
433	Cabo Frio	50405	-42.0166700	-22.8833300	1	1	36
434	Campos	50406	-41.3000000	-21.7500000	1	1	36
435	Canan?ia	50407	-47.9500000	-25.0167000	0	1	36
436	Copacabana	50408	-43.1833300	-22.9666700	1	1	36
437	Dois Rios	50409	-44.1833300	-23.1833300	0	1	36
438	Ilha de Paquet?	50410	-43.1091700	-22.7594400	0	1	36
439	Ilha das Palmas	50411	-45.0600000	-23.5395000	0	1	36
440	Ilha Grande	50412	-44.2378400	-23.1503200	1	1	36
441	Ilha de Lobes	50413	-49.7000000	-29.3333300	0	1	36
442	Ilha de Marambaia	50414	-43.9269400	-22.9993000	1	1	36
1432	Angra dos Reis	50415	-44.3185100	-23.0069200	1	1	36
443	Maca?	50416	-41.7833300	-22.3833300	1	1	36
444	Mangaratiba	50417	-44.0333300	-22.9500000	1	1	36
445	Maric?	50418	-42.8166700	-22.9166700	1	1	36
446	Paranagu?	50419	-48.5000000	-25.5166700	1	1	36
447	Parati	50420	-44.7166700	-23.2166700	1	1	36
448	Ponta Negro	50421	-35.1666700	-5.8833300	1	1	36
449	Rio de Janeiro	50422	-43.2333300	-22.9000000	1	1	36
620	Rio de Janeiro province	50423	-43.5700000	-23.0200000	0	1	36
622	Rio de Janeiro, Sao Paulo, Santa Catarina	50424	-45.9900000	-23.7900000	0	1	36
1433	Angra dos Reis e Mangaratiba	50425	-44.3185100	-23.0069200	1	1	36
450	Rio Grande do Sul, place unspecified	50426	-51.2000000	-30.0333300	1	1	36
451	Rio S?o Jeso	50427	-46.6890800	-24.0723300	1	1	36
452	Santos	50428	-46.3333300	-23.9500000	1	1	36
1434	Antonina	50429	-48.7162000	-25.4328300	1	1	36
453	S?o Sebasti?o	50430	-45.4166700	-23.8000000	1	1	36
454	Santa Catarina	50431	-48.4718500	-27.4597200	1	1	36
1435	Arir?	50432	-44.3354800	-22.8954300	1	1	36
455	Ubatuba	50433	-45.0666700	-23.4333300	1	1	36
456	Vit?ria	50434	-40.3500000	-20.3166700	1	1	36
933	Laguna	50435	-48.7800000	-28.4800000	1	1	36
934	Ilha dos Porcos	50436	-41.9833300	-22.9666700	1	1	36
942	S?o Vicente	50437	-46.3333300	-23.9500000	1	1	36
941	Esp?rito Santo	50438	-40.2900000	-20.2900000	1	1	36
1436	Benevente	50439	-40.6567300	-20.8056200	1	1	36
1437	Campos e Maca?	50440	-41.3000000	-21.7500000	1	1	36
1438	Canan?ia e Iguape	50441	-47.5574500	-24.7069700	1	1	36
1439	Caraguatatuba	50442	-45.4120800	-23.6200500	1	1	36
1440	Guarapari	50443	-40.4999800	-20.6738900	1	1	36
1441	Guaratiba	50444	-43.6365500	-23.0045000	1	1	36
1442	Guaratuba	50445	-48.5762900	-25.8843800	1	1	36
1443	Iguape	50446	-47.5574500	-24.7069700	1	1	36
1444	Itabapoana	50447	-40.9742600	-21.3007600	1	1	36
1445	Itagua?	50448	-43.7779000	-22.8631900	1	1	36
1446	Itaipu	50449	-43.0291200	-22.9561300	1	1	36
1447	Itaja?	50450	-48.6775100	-26.9082800	1	1	36
1448	Itapemirim	50451	-40.7837500	-20.9025000	1	1	36
1449	Itapocor?i	50452	-48.6079000	-26.7942600	1	1	36
1450	Jerumirim	50453	-44.3172100	-22.9326700	1	1	36
1451	Jerumirim e Mangaratiba	50454	-44.3172100	-22.9326700	1	1	36
1452	Mambucaba	50455	-44.5181700	-23.0211600	1	1	36
1453	Porto Alegre	50456	-51.2089800	-30.0368100	1	1	36
1454	Porto Belo	50457	-48.5757000	-27.1574600	1	1	36
1455	Portos do Sul	50458	-52.1016900	-32.0407800	1	1	36
1456	Rio das Ostras	50459	-41.9463900	-22.5273000	1	1	36
1457	Rio Doce	50460	-39.8150800	-19.6445700	1	1	36
1458	Rio Grande	50461	-52.1016900	-32.0407800	1	1	36
1459	Rio S?o Francisco do Sul	50462	-48.6634100	-26.2165800	1	1	36
1460	Rio S?o Jo?o	50463	-41.9928400	-22.5955800	1	1	36
1461	S?o Mateus	50464	-39.8558700	-18.7166000	1	1	36
1462	Vila Nova	50465	-48.6830900	-28.2664400	1	1	36
1474	Ara?ariguama	50466	-47.0638699	-23.4377440	1	1	36
1481	Barbacena	50467	-43.7724487	-21.2219897	1	1	36
2078	Florian?polis	50468	-48.5569286	-27.5948036	1	1	36
2079	Jacare?	50469	-45.9674523	-23.3029181	1	1	36
2080	Mariana Minas Gerais	50471	-43.4129106	-20.4130870	1	1	36
2081	Minas Gerais State	50472	-43.7908453	-17.9301780	1	1	36
2082	Niter?i	50473	-43.1013526	-22.8807073	1	1	36
2083	Curitiba	50474	-49.2699727	-25.4372382	1	1	36
2084	Santa Catarina State	50475	-49.3653149	-26.9285720	1	1	36
2085	S?o Paulo	50476	-46.6395571	-23.5557714	1	1	36
2086	Silvian?polis	50477	-45.8356091	-22.0294237	1	1	36
2087	Sorocaba	50478	-47.4851438	-23.4709096	1	1	36
2088	Tatu?	50479	-47.8474222	-23.3475079	1	1	36
2089	Viana	50481	-40.4215810	-20.3668666	1	1	36
2160	Cerrito	50482	-52.8159000	-31.8542600	1	1	36
2161	Fazenda do Largo	50483	-41.0442800	-21.6348900	1	1	36
2162	Guarainha	50484	NULL	NULL	1	1	36
2163	Imbetiba	50485	-41.7732300	-22.3831300	1	1	36
2164	Ipanema	50486	-43.1985900	-22.9846600	1	1	36
2165	Itacuru??	50487	-43.9079000	-22.9213100	1	1	36
2166	Leopoldina	50488	NULL	NULL	1	1	36
2167	Pelotas	50489	-52.3313200	-31.7699600	1	1	36
2168	Pi?ma	50490	-40.7230600	-20.8382100	1	1	36
2169	S?o Jo?o da Barra	50491	-41.0442800	-21.6348900	1	1	36
457	Southeast Brazil, port unspecified	50499	0.0000000	0.0000000	0	0	36
963	Brazil, place unspecified	50599	-39.1921030	-17.5277790	1	1	83
458	Albreda	60101	-16.3866700	13.3344400	1	1	53
459	Arguim	60102	-16.4600000	20.5956900	0	1	53
460	Bissagos	60103	-16.1203700	11.2014300	1	1	53
461	Bissau	60104	-15.5833300	11.8500000	1	1	53
462	Cacheu	60105	-16.1658300	12.2705600	1	1	53
463	Casamance	60106	-16.7131800	12.5711500	1	1	53
780	Galam	60107	0.0000000	0.0000000	0	0	53
464	Gambia	60108	-16.5775000	13.4530600	1	1	53
465	Gor?e	60109	-17.3991700	14.6686100	1	1	53
466	James Fort	60110	-16.3910100	13.3064100	1	1	53
467	Joal, or Saloum River	60111	-16.8333300	14.1666700	0	1	53
757	Oibo	60112	0.0000000	0.0000000	0	0	53
468	Portudal	60113	-17.0125000	14.4383300	1	1	53
469	Portuguese Guinea	60114	-15.8010500	12.2478800	1	1	53
758	Rio Bolola	60115	0.0000000	0.0000000	0	0	53
759	Rio Bramiah	60116	0.0000000	0.0000000	0	0	53
470	Rio Grande	60117	-15.4940300	11.5049000	1	1	53
781	Saint-Louis	60118	-16.5000000	16.1200000	1	1	53
471	French Africa (Goree or Senegal)	60119	-16.7833300	15.3833300	0	1	53
472	Cape Verde Islands	60126	-22.9387500	16.1018000	1	1	53
760	Santa Catarina do Fogo	60127	0.0000000	0.0000000	0	0	53
473	Madeira	60128	-16.9000000	32.6333300	1	1	53
624	Azores	60129	0.0000000	0.0000000	0	1	53
2	Canary Islands	60141	-15.7604000	28.1510800	1	1	53
3	Tenerife	60142	-16.1716400	28.5460300	1	1	53
1299	McCarthy Island	60143	-14.7650000	13.5350000	1	1	53
2094	River Gambie	60145	-14.1679799	12.8424520	1	1	53
2095	Dakar	60146	-17.3989282	14.6678596	1	1	53
2096	S?o Nicolau, Cape Verde	60147	-24.3103718	16.6048609	1	1	53
2097	Senegal	60148	-14.4523620	14.4974010	1	1	53
474	Senegambia and offshore Atlantic, port unspecified	60199	-16.7833300	15.3833300	0	1	53
475	Banana Islands	60201	-13.2286700	8.1047300	1	1	55
816	Bance/Bunce Island	60202	-13.0035600	8.5705100	1	1	55
625	Ben's Island	60203	0.0000000	0.0000000	0	1	55
476	Cacandia	60204	-14.5700000	10.7820200	0	1	55
815	C?te de Malaguette (runs through to Cape Palmas on Windward Coast)	60205	-10.9500000	5.7830600	0	1	55
477	Delagoa	60206	32.7172600	-26.2196700	1	1	55
783	Freetown	60207	-13.2300000	8.4900000	1	1	55
478	Gallinhas	60208	-12.0415700	7.2601600	1	1	55
609	Garraway Roads	60209	-7.9331000	4.4969000	0	1	55
479	Iles de Los	60210	-13.7953400	9.4803900	1	1	55
480	Iles Plantain	60211	-12.9877800	7.9125000	0	1	55
481	Rio Nunez	60212	-14.6379000	10.5821600	1	1	55
482	Rio Pongo	60213	-14.0615700	10.1375600	1	1	55
483	Scarcies	60214	-13.2146400	8.9387200	1	1	55
484	Settra Kou	60216	-8.8458300	4.8991700	1	1	55
485	Sherbro	60217	-12.7041500	7.5732500	1	1	55
626	Siraboom	60218	0.0000000	0.0000000	0	1	55
818	Sugary (Siekere)	60219	-11.3900000	6.8466700	0	1	55
794	Sierra Leone estuary	60220	-13.1706600	6.4961300	0	0	55
981	Bundu	60221	-12.4594280	10.9911077	1	1	55
809	Mano	60241	-11.2833300	6.9833300	1	1	55
810	River Kissey	60242	-13.1204000	8.5001300	1	1	55
1290	Bathurst (Leopold)	60243	-13.1999000	8.4312000	1	1	55
1288	Kissy	60244	-13.1893000	8.4686000	1	1	55
1289	Charlotte	60245	-13.1916670	8.4241660	1	1	55
1291	Gloucester	60246	-13.2139000	8.4522000	1	1	55
1292	Hastings	60247	-13.2139000	8.4522000	1	1	55
1287	Waterloo	60248	-13.0696000	8.3390000	1	1	55
1295	Regent	60249	-13.2185000	8.4355000	1	1	55
1306	Aberdeen	60253	-13.2916269	8.4916078	1	1	55
1396	Wellington	60254	-13.1709290	8.4420810	1	1	55
1303	Wilberforce	60256	-13.2678000	8.4738000	1	1	55
1398	Newlands	60257	-13.2300000	8.3000000	1	1	55
1305	Murray	60258	-13.2707000	8.4840000	1	1	55
1397	Leicester	60259	-13.2259978	8.4493882	1	1	55
1307	Fraser Town	60260	-13.2300000	8.3000000	1	1	55
1308	Denham Town (Lumley)	60261	-13.2765000	8.4549000	1	1	55
1304	Lumley	60262	-13.2765000	8.4549000	1	1	55
1320	Kissy and Wellington	60263	-13.1742000	8.4594000	1	1	55
1309	Goderich	60264	-13.2857840	8.4275610	1	1	55
1394	Kent	60265	-13.1606800	8.1755100	1	1	55
1321	Kent School	60266	-13.0666700	8.3333300	1	1	55
1400	Mountain School	60267	NULL	NULL	1	1	55
1401	Portuguese Town	60268	NULL	NULL	1	1	55
1310	Western District	60269	-13.0877000	8.3075000	1	1	55
1298	Mountains	60270	-13.2176070	8.4087320	1	1	55
1316	Tombo	60271	-13.0976000	8.2177000	1	1	55
1317	Sussex	60272	-13.2302000	8.3468000	1	1	55
1301	Calmont	60273	-13.2300000	8.3000000	1	1	55
1302	Allenstown	60274	-13.1603000	8.4136100	1	1	55
784	Sierra Leone, port unspecified	60299	-13.2300000	8.3000000	0	1	55
800	Barason	60301	0.0000000	0.0000000	0	0	94
486	Bassa	60302	-10.1498300	5.9800000	1	1	94
627	Batoa	60303	0.0000000	0.0000000	0	1	94
628	Bercou	60304	0.0000000	0.0000000	0	1	94
629	Cap des Palmes	60305	0.0000000	0.0000000	0	1	94
817	Cape Mount (Cape Grand Mount)	60306	-11.3090500	6.7040700	1	1	94
487	Cape Petit Mount	60307	-11.1777100	6.6469700	1	1	94
488	Cape Grand Mount	60308	-11.3580700	6.7377600	1	1	94
489	Cape Lahou	60309	-5.0241700	5.1366700	1	1	94
490	Cess	60310	-9.4829200	5.3566100	1	1	94
491	Grand Cess	60311	-8.2200000	4.5713900	0	1	94
630	Petit Cess	60312	0.0000000	0.0000000	0	1	94
631	Dembia	60313	0.0000000	0.0000000	0	1	94
492	Drouin	60314	-6.1500000	4.9166700	0	1	94
493	Grand Bassa	60315	-10.0625000	5.9111100	1	1	94
494	Little Bassa	60316	-10.1500000	5.9711100	0	1	94
495	Grand Bassam	60317	-3.7350000	5.2019400	1	1	94
496	Grand Junk	60318	-10.6538100	6.2368900	1	1	94
497	Little Junk	60319	-10.4753300	6.1901300	1	1	94
499	Grand Mesurado	60321	-10.8091900	6.3191200	1	1	94
500	Petit Mesurado	60322	-10.8122400	6.4185500	1	1	94
501	Rio Assini	60324	-3.2800000	5.1236100	0	1	94
632	Rio Cavalie	60325	0.0000000	0.0000000	0	1	94
633	Rio Sinou	60326	0.0000000	0.0000000	0	1	94
502	River Kissey	60327	-13.1204000	8.5001300	1	1	94
503	Sassandra	60328	-6.0833300	4.9500000	1	1	94
813	Grand Sestos	60329	-10.0341400	5.8518300	1	1	94
814	Rock Sestos	60330	-10.0341400	5.8518300	0	1	94
504	St. Paul	60331	-10.7924600	6.3800000	1	1	94
505	Tabou	60332	-7.3500000	4.4166700	0	1	94
506	Trade Town	60333	-9.8500000	5.8000000	0	1	94
507	Liberia	60334	-10.7797200	6.3175000	0	1	94
508	Ivory Coast	60335	-4.8800000	5.1659500	0	1	94
801	Young Sestos	60336	0.0000000	0.0000000	0	0	94
802	Little Sestos	60337	0.0000000	0.0000000	0	0	94
803	Kru Settra	60338	0.0000000	0.0000000	0	0	94
804	Cape Palmas	60339	0.0000000	0.0000000	0	0	94
808	Settra Kru	60340	0.0000000	0.0000000	0	0	94
1546	Sugury	60341	NULL	NULL	1	1	94
509	Windward Coast, place unspecified	60399	-8.6875167	4.8096720	0	1	94
510	Danish Gold Coast	60402	-0.1993000	5.5418900	1	1	56
805	Acoda  (Akka or Acquida)	60403	0.0000000	0.0000000	0	0	56
511	Accra	60404	-0.2166700	5.5500000	1	1	56
512	Alampo	60405	-0.9159000	5.2907400	1	1	56
634	Anomabu and Apam	60407	0.0000000	0.0000000	0	1	56
610	Anomabu	60408	-1.1167000	5.1667000	1	1	56
513	Apammin	60409	-0.7333300	5.2833300	1	1	56
514	Apollonia	60410	-2.3647200	4.9348900	1	1	56
515	Axim	60411	-2.2413900	4.8683300	1	1	56
516	Cape Coast Castle	60412	-1.1166200	5.1825100	1	1	56
635	Chama	60413	0.0000000	0.0000000	0	1	56
517	Christiansborg	60414	-0.1833300	5.5500000	1	1	56
518	Elmina	60415	-1.3500000	5.0833300	1	1	56
636	Eva	60416	0.0000000	0.0000000	0	1	56
519	Kormantine	60417	-1.0833300	5.2000000	1	1	56
637	Lagoo	60418	0.0000000	0.0000000	0	1	56
638	Mouree	60419	-1.1582800	5.1632800	1	1	56
639	Ningo	60420	0.0000000	0.0000000	0	1	56
640	Rio Volta	60421	0.0000000	0.0000000	0	1	56
641	Sekondi	60422	0.0000000	0.0000000	0	1	56
642	Siekere	60423	0.0000000	0.0000000	0	1	56
643	Tantumquerry	60424	0.0000000	0.0000000	0	1	56
520	Wiamba	60425	-0.6166700	5.3333300	1	1	56
644	Gold Coast from Kormatine to Accra	60426	-0.5600000	5.3578400	0	1	56
521	Gold Coast east of Kormantine	60427	-0.5600000	5.3578400	0	1	56
812	Pokesoe (Princes Town)	60428	-2.1347200	4.7936100	0	0	56
806	Boutry	60429	0.0000000	0.0000000	0	0	56
931	Takoradi	60431	-1.7406330	4.8845920	1	1	56
1547	Padeora	60432	NULL	NULL	1	1	56
1548	Nanga	60433	NULL	NULL	1	1	56
1549	Prampram	60434	NULL	NULL	1	1	56
522	Gold Coast, port unspecified	60499	-1.0992000	5.1907700	0	1	56
763	Benin	60501	5.6145000	6.3176000	1	1	57
645	Costa da Mina, place unspecified	60502	2.3300000	5.2700000	0	1	57
523	Aghway	60503	1.4800000	6.1988900	0	1	57
646	Agora	60504	0.0000000	0.0000000	0	1	57
647	Amokou	60505	0.0000000	0.0000000	0	1	57
524	Ardra	60506	2.2000000	6.4000000	1	1	57
525	Badagry/Apa	60507	3.0500000	6.4166700	1	1	57
526	Dixcove	60508	-1.9500000	4.8000000	1	1	57
527	Epe	60509	2.8833300	6.4166700	1	1	57
528	Popo	60510	1.6900000	6.2633300	1	1	57
529	Little Popo	60511	1.6000000	6.2333300	1	1	57
530	Grand Popo	60512	1.8333300	6.2833300	1	1	57
648	Ife	60513	0.0000000	0.0000000	0	1	57
531	Jacquin	60514	2.5136400	6.3698400	1	1	57
532	Whydah, Ouidah	60515	2.0833300	6.3666700	1	1	57
533	Keta	60516	0.9833300	5.9166700	1	1	57
534	Lagos, Onim	60517	3.3958300	6.4530600	1	1	57
761	Lamo River	60518	0.0000000	0.0000000	0	0	57
649	Lay	60519	0.0000000	0.0000000	0	1	57
650	Legas	60520	0.0000000	0.0000000	0	1	57
535	Oer?	60521	5.0800000	5.7500000	0	1	57
651	Pataquery	60522	0.0000000	0.0000000	0	1	57
536	Porto Novo	60523	2.6166700	6.4833300	1	1	57
537	Rio Forcados/Formosa/Benin	60524	5.2800000	5.3864100	0	1	57
652	Rio Nazareth	60525	0.0000000	0.0000000	0	1	57
538	Rio Nun	60526	6.0495800	4.3132800	1	1	57
807	Bristol Island, Nazareth	60530	0.0000000	0.0000000	0	0	57
539	Bight of Benin, place unspecified	60599	2.0833300	6.3666700	0	1	57
540	Andony	60601	7.1900000	4.4786500	0	1	58
653	Barabalemo	60602	0.0000000	0.0000000	0	1	58
654	Bilbay	60603	0.0000000	0.0000000	0	1	58
541	Bimbia	60604	9.2450000	3.9544400	1	1	58
542	Bonny	60605	7.1666700	4.4333300	1	1	58
655	Bundy	60607	0.0000000	0.0000000	0	1	58
543	Calabar	60608	8.3166700	4.9500000	1	1	58
544	Cameroons	60609	9.5806200	3.9130900	1	1	58
545	Cameroons River	60610	9.5806200	3.9130900	0	1	58
656	Cape Baxos	60611	0.0000000	0.0000000	0	1	58
546	Cap Lopez	60612	8.7115500	-0.6254000	1	1	58
547	Cap Lopez And Cabo Santa Catarina	60613	8.7115500	-0.6254000	0	1	58
657	Cape Lopez and Annobon	60614	0.0000000	0.0000000	0	1	58
548	Corisco	60615	9.3170100	0.9145700	1	1	58
658	Corisco and Princes Island	60616	7.4405000	1.5628500	1	1	58
659	Fockey	60617	0.0000000	0.0000000	0	1	58
660	Forke	60618	0.0000000	0.0000000	0	1	58
549	Formosa	60619	6.0258800	4.3122100	1	1	58
550	Gabon	60620	9.8933700	0.2073900	1	1	58
661	Liverpool River	60621	0.0000000	0.0000000	0	1	58
551	New Calabar	60622	6.9758000	4.5742000	1	1	58
662	Quaqua	60623	0.0000000	0.0000000	0	1	58
552	River Brass	60624	6.5070500	4.3293900	1	1	58
553	River del Rey	60625	8.6500000	4.7333300	1	1	58
663	Timbeys	60626	0.0000000	0.0000000	0	1	58
811	Rio Nazareth	60627	0.0000000	0.0000000	0	1	58
927	Calabary	60628	8.3100000	4.1700000	1	1	58
1311	Duke Town	60635	NULL	NULL	1	1	58
1312	Tom Shotts Town	60636	8.3171761	4.7503699	1	1	58
1313	Creek Town	60637	NULL	NULL	1	1	58
1314	Ekrikok towns	60638	NULL	NULL	1	1	58
1315	Old Town	60639	NULL	NULL	1	1	58
664	Gulf of Guinea islands	60660	0.0000000	0.0000000	0	1	58
554	Annobon	60661	-1.4013900	5.6325000	1	1	58
665	Epee and Princes Islands	60662	0.0000000	0.0000000	0	1	58
615	Fernando Po	60663	8.7000000	3.4900000	0	1	58
666	Fernando Po and Cameroons	60664	0.0000000	0.0000000	0	1	58
667	Fernando Po and Princes Islands	60665	0.0000000	0.0000000	0	1	58
668	Juda and Princes Islands	60666	0.0000000	0.0000000	0	1	58
669	Juda, Epee, Princes Island, and Annobon	60667	0.0000000	0.0000000	0	1	58
555	Princes Island	60668	7.3500000	1.5666700	1	1	58
670	Princes Island and Annobon	60669	0.0000000	0.0000000	0	1	58
671	Princes Island and Cape Lopez	60670	0.0000000	0.0000000	0	1	58
672	Princes Island and S?o Tom?	60671	6.5435200	0.2557400	1	1	58
673	Principe, Cap Lopez, Annobon	60672	0.0000000	0.0000000	0	1	58
556	S?o Tom?	60673	6.7333300	0.3333300	1	1	58
674	S?o Tom? and Annobon	60674	0.0000000	0.0000000	0	1	58
675	S?o Tom? and Cape Lopez	60675	0.0000000	0.0000000	0	1	58
557	S?o Tom? or Princes Island	60676	6.6594700	0.1861000	1	1	58
676	Costa de Africa (mainland coast around S Tome/Principe)	60677	0.0000000	0.0000000	0	1	58
558	Bight of Biafra and Gulf of Guinea Islands, port unspecified	60699	8.9024724	4.4101786	0	1	58
677	Alecuba	60701	0.0000000	0.0000000	0	1	59
678	Ambona	60702	0.0000000	0.0000000	0	1	59
559	Ambriz	60703	13.1166700	-7.8500000	1	1	59
560	Ambrizete	60704	12.8700000	-7.2333300	0	1	59
679	Barra de Cariba, Luanda	60705	0.0000000	0.0000000	0	1	59
680	Bengo	60706	0.0000000	0.0000000	0	1	59
561	Benguela	60707	13.4072200	-12.5783300	1	1	59
562	Benguela Velho	60708	13.7500000	-10.7333000	0	1	59
563	Boary	60709	11.8414300	-4.7264600	1	1	59
681	Bomara	60710	0.0000000	0.0000000	0	1	59
564	Cabinda	60711	12.2000000	-5.5500000	1	1	59
682	Cabo Lopo Gon?alves	60712	0.0000000	0.0000000	0	1	59
683	Cape Mole	60713	0.0000000	0.0000000	0	1	59
684	Cape Padroon	60714	0.0000000	0.0000000	0	1	59
565	Coanza River	60715	13.1756700	-9.3181100	1	1	59
743	Congo North	60716	10.3800000	-3.1546900	1	1	59
566	Congo River	60717	12.9711100	-5.8946200	1	1	59
567	Rio Zaire	60718	12.9711100	-5.8946200	0	1	59
685	Grenada Point	60719	0.0000000	0.0000000	0	1	59
686	Iron Point	60720	0.0000000	0.0000000	0	1	59
687	Kacongo	60721	0.0000000	0.0000000	0	1	59
568	Kilongo	60722	11.3497200	-4.1097200	1	1	59
688	Liverpool River	60723	0.0000000	0.0000000	0	1	59
569	Loango	60724	11.8125000	-4.6519400	1	1	59
570	Malembo	60725	12.1833300	-5.3333300	1	1	59
571	Mayumba	60726	10.6500000	-3.4166700	1	1	59
689	Metrueba	60727	0.0000000	0.0000000	0	1	59
690	Mossulo, Luanda	60728	0.0000000	0.0000000	0	1	59
691	Mpinda	60729	12.5135300	-6.1370000	1	1	59
572	Novo Redondo	60730	13.8333300	-11.2000000	1	1	59
692	Penido	60731	0.0000000	0.0000000	0	1	59
573	Quicombo	60732	13.8166700	-11.3166700	1	1	59
574	Salinas	60733	13.3502800	-12.6144400	1	1	59
592	Luanda	60734	13.2344400	-8.8383300	1	1	59
575	Rio Dande (N of Luanda)	60735	13.3500000	-8.4666700	0	1	59
1300	Ascension Island	60739	-14.3550000	-7.9467000	1	1	59
779	St. Helena	60740	-5.4200000	-15.5700000	1	1	59
795	Soyo	60741	12.3709000	-6.1299600	0	0	59
847	Ponta da Lenha, Congo River	60742	-6.0356250	12.8053060	1	1	59
2366	Waalvisch Bay, Walvis Bay	60743	14.5057500	-22.9584000	1	1	59
576	West Central Africa and St. Helena, port unspecified	60799	13.2344400	-8.8383300	0	1	59
693	Anghoza River, Angoza River	60801	39.9070900	-16.2275000	1	1	60
694	Cabo Delgado	60802	40.5991300	-12.3376100	1	1	60
577	Cape of Good Hope	60803	18.3833300	-34.1000000	1	1	60
2347	Diego Garcia	60804	72.4228500	-7.3195000	1	1	60
695	Costa Leste Occidental	60805	0.0000000	0.0000000	0	1	60
578	Ibo	60806	40.5833300	-12.3333300	1	1	60
579	Inhambane	60807	35.3833300	-23.8650000	1	1	60
580	Quirimba	60808	40.6130600	-12.4302800	1	1	60
581	Kilwa	60809	39.4000000	-8.7500000	1	1	60
582	Louren?o Marques	60810	32.5891700	-25.9652800	1	1	60
583	Madagascar	60811	43.9544970	-24.7892440	1	1	60
696	Mauratan	60812	0.0000000	0.0000000	0	1	60
697	Morondava, Morondova	60813	0.0000000	0.0000000	0	1	60
698	Port Dauphin, Fort Dauphin	60814	46.9853600	-25.0225300	1	1	60
699	Sainte Marie, St. Mary's Island	60815	49.9059400	-16.8944200	1	1	60
700	Tulia, Tulear	60816	43.6854900	-23.3516100	1	1	60
701	Mocambo	60817	40.6687700	-15.1212600	1	1	60
2348	Mafia	60818	39.7549500	-7.8698900	1	1	60
702	Momboza or Zanzibar	60819	39.1989100	-6.1651900	1	1	60
584	Mozambique	60820	40.7357600	-15.0384600	1	1	60
703	Pomba, Monfia	60821	39.7755500	-5.0319300	1	1	60
585	Quilimane	60822	36.8883300	-17.8786100	1	1	60
586	Sofala	60823	34.7316700	-20.1550000	1	1	60
704	St. Lawrence, Madagascar	60824	46.8691000	-18.7669400	1	1	60
2349	Mah?	60825	55.4803900	-4.6826600	1	1	60
587	Zanzibar	60826	39.1833300	-6.1666700	1	1	60
2350	Masabe, Massaby	60827	32.2000000	-26.2833000	1	1	60
2351	Mayotte	60828	45.1662400	-12.8275000	1	1	60
2352	Mogincual	60829	40.4134200	-15.5657800	1	1	60
2353	Mombasa	60830	39.6682000	-4.0434700	1	1	60
588	Mascarene Islands	60831	56.6422100	-20.7775800	1	1	60
705	Bourbon, Reunion	60832	55.6000000	-21.1000000	1	1	60
589	Ile de France, Mauritius	60833	57.5602500	-20.3286400	1	1	60
706	Port-Louis	60834	57.5012200	-20.1608900	1	1	60
2354	Mussange, Mussanje	60835	40.4160900	-12.8983400	1	1	60
590	Johanna Island, Anjouan, Nzwani	60836	44.4200000	-12.2200000	1	1	60
707	Mauritius (Ile de France)	60837	57.5833300	-20.3000000	1	1	60
708	Ascension, Assomption, and Bourbon	60838	0.0000000	0.0000000	0	1	60
2171	Angossy Bay, Angontsy	60839	50.4866600	-15.2655500	1	1	60
2172	Antongil Bay	60840	49.8402700	-15.7500000	1	1	60
2173	Assada, Nosy Be, Nossy-B?	60841	48.2592600	-13.3150100	1	1	60
2174	Boina	60842	45.9368900	-15.7964800	1	1	60
2175	Bombetoc; Bombetoka; Mahajanga; Majunga	60843	46.3173000	-15.7179700	1	1	60
2176	Bonnivoul	60844	49.4520000	-17.4153400	1	1	60
2177	Farantangane, Farafangana	60845	47.8180300	-22.8174100	1	1	60
2178	Foulpointe, Mahavelona	60846	49.5140000	-17.6814200	1	1	60
2179	Luna Roads	60847	44.4166900	-19.6683500	1	1	60
2180	Manabullo, Manambolo	60848	44.2949300	-19.1544800	1	1	60
2181	Manazary; Manajary	60849	48.3464400	-21.2245100	1	1	60
2182	Mangally	60850	43.6245800	-23.1857600	1	1	60
2183	Maningare; Manningare	60851	49.4411200	-17.2171700	1	1	60
2184	Massalege; Massaliege; Massaly; Magelage; Mazalagem	60852	46.4729000	-15.5302000	1	1	60
2185	Matitanana	60853	47.9168500	-22.4157400	1	1	60
2187	Morongany; Morongambo; Maringando	60855	46.3553400	-15.9058400	1	1	60
2188	Pointe Lar?e	60856	49.7806900	-16.8404200	1	1	60
2189	Sadian Bon Porto	60857	44.4236400	-19.6775000	1	1	60
2190	Saint Augustine's Bay; St. Augustin Bay	60858	43.7616800	-23.5527900	1	1	60
2191	Sainte Luce	60859	47.1959300	-24.7699900	1	1	60
2192	Tsiribihina	60860	44.4236400	-19.6775000	1	1	60
2193	Vohemar; Wohemar Bay	60861	50.0033600	-13.3702800	1	1	60
2194	Delagoa Bay	60862	32.7633000	-26.0828400	1	1	60
2195	Swahili coast	60863	39.4000000	-8.7500000	1	1	60
2196	Lindi	60864	39.7433000	-9.9782800	1	1	60
2197	Malimbe, Malemba, Malembane	60865	35.1138800	-21.8936100	1	1	60
2198	Manguira	60866	NULL	NULL	1	1	60
2199	Mikindani	60867	40.1119800	-10.2823200	1	1	60
2200	Mongale	60868	39.9825100	-10.1350900	1	1	60
2201	Comoro islands, port unspecified	60869	NULL	NULL	1	1	60
2202	Mohilla, Mwali	60870	43.7334000	-12.3377300	1	1	60
2203	Seychelles, port unspecified	60871	55.4803900	-4.6826600	1	1	60
2204	Horn of Africa	60872	49.3589800	9.8291500	1	1	60
2474	Marka Harbor, Merca	60873	44.7699000	1.7169000	1	1	60
2356	Tamatave, Toamasina	60874	49.4014900	-18.1330300	1	1	60
2365	Struys Bay, Struisbaai	60875	20.0463300	-34.7980200	1	1	60
2475	Kisimayo	60876	42.5467000	-0.3553800	1	1	60
2367	Durban	60877	31.0218400	-29.8586800	1	1	60
2368	Lamu, Pate	60878	40.9006400	-2.2695500	1	1	60
2369	Vatomandry	60879	48.9782400	-19.3308100	1	1	60
2370	F?n?rive, Fenoarivo	60880	48.9782400	-19.3308100	1	1	60
2371	Rodrigues	60881	63.4272100	-19.7245300	1	1	60
2374	Manambaho	60882	44.0127700	-17.6980200	1	1	60
2375	Maintirano	60883	44.0341900	-18.0524200	1	1	60
2376	Chiloane	60884	34.9286000	-20.6692000	1	1	60
2476	Dar es Salaam	60886	39.2947800	-6.8193400	1	1	60
2477	Brava, Barawa, Barawe	60887	44.0313700	1.1153600	1	1	60
2478	Malindi	60888	40.1186300	-3.2199500	1	1	60
2479	Pangani	60889	38.9759200	-5.4252600	1	1	60
2480	Pemba	60890	39.7978700	-5.2017500	1	1	60
2481	Ras al-Khyle, Ras El Kheyl	60891	NULL	NULL	1	1	60
2482	Ras Hafun	60892	51.3057900	10.4899500	1	1	60
2484	Bagamoyo	60894	38.9001800	-6.4453900	1	1	60
2485	Cape Guadafui	60895	51.2867100	11.8349000	1	1	60
2486	Natal	60896	31.0225100	-29.8582600	1	1	60
2206	East Africa, port unspecified	60898	39.4650200	-8.8106800	1	1	60
709	Southeast Africa and Indian Ocean islands, port unspecified	60899	39.5100000	-17.1400000	1	1	60
710	Princes Island and Elmina	60901	0.0000000	0.0000000	0	1	84
711	Angola (possibly New Calabar)	60902	0.0000000	0.0000000	0	1	84
712	Senegambia or Sierra Leone	60903	0.0000000	0.0000000	0	1	84
713	West of Cape Apolonia	60908	0.0000000	0.0000000	0	1	84
714	Angola to Ardra	60909	0.0000000	0.0000000	0	1	84
715	Windward + Ivory + Gold + Benin	60912	0.0000000	0.0000000	0	1	84
716	C.C. Castle and Windward	60913	0.0000000	0.0000000	0	1	84
717	Gold Coast + Bight of Benin + Bight of Biafra	60914	0.0000000	0.0000000	0	1	84
591	Bights	60915	5.9900000	4.2656500	0	1	84
749	Windward Coast (Nunez - Assini)	60916	0.0000000	0.0000000	0	0	84
750	Gold Coast, Fr. definition	60917	0.0000000	0.0000000	0	0	84
718	Causacoo (location undetermined)	60981	0.0000000	0.0000000	0	1	84
719	Cape St Martha (location undetermined)	60982	0.0000000	0.0000000	0	1	84
744	Casnasonis (location undetermined)	60983	0.0000000	0.0000000	0	0	84
745	Massa (location undetermined)	60984	0.0000000	0.0000000	0	0	84
746	Touau-Toro (location undetermined)	60985	0.0000000	0.0000000	0	0	84
747	Cape Logas (location undetermined)	60986	0.0000000	0.0000000	0	0	84
748	Africa, port unspecified	60999	9.3438970	0.0540330	1	1	84
2207	Middle East, port unspecified	70199	53.1078200	16.6514000	1	1	108
2208	Aden	70201	45.0175900	12.7906300	1	1	109
2209	Assab	70202	42.7362800	13.0136300	1	1	109
2210	Berbera	70203	45.0139900	10.4347900	1	1	109
2211	Hodeidah	70204	42.9700300	14.7883500	1	1	109
2212	Jeddah	70205	39.1610800	21.5291500	1	1	109
2213	Massawa	70206	39.4531000	15.6080300	1	1	109
2214	Port Sudan	70207	37.1901600	19.5903400	1	1	109
2215	Suakin	70208	37.3292800	19.1040300	1	1	109
2487	Mukalla, Mukullah	70209	49.1227100	14.5511600	1	1	109
2488	Mocha, Mokha, Mukha	70210	43.2501500	13.3208400	1	1	109
2497	Suez	70211	32.5478600	29.9689400	1	1	109
2483	Socotra	70212	53.8277700	12.4708000	1	1	109
2216	Red Sea and Gulf of Aden, port unspecified	70299	45.0175900	12.7906300	1	1	109
2217	Abu Dhabi	70401	54.3773400	24.4538800	1	1	110
2218	Bahrain	70402	50.5577000	26.0667000	1	1	110
2219	Bandar Abbas	70403	56.2883600	27.1962500	1	1	110
2220	Bander Jask	70404	57.7856600	25.6577000	1	1	110
2221	Bander Kangan	70405	52.0628900	27.8461400	1	1	110
2222	Bander Lingah	70406	54.8935300	26.5671500	1	1	110
2223	Bander Rig	70407	50.6307800	29.4868700	1	1	110
2224	Basrah	70408	47.7737800	30.5259900	1	1	110
2225	Chah Bahar, Chabahar Bay	70409	60.5257100	25.3627500	1	1	110
2226	Damman	70410	50.0887900	26.4206800	1	1	110
2227	Doha	70411	51.5310300	25.2854400	1	1	110
2228	Dubai	70412	55.2707800	25.2048400	1	1	110
2229	Guwadar	70413	62.3249800	25.1313200	1	1	110
2230	Jubayl	70414	49.5687400	26.9597700	1	1	110
2231	Kuwait	70415	47.4817600	29.3116600	1	1	110
2232	Manamah	70416	50.5875900	26.2235300	1	1	110
2233	Muharraq	70417	50.6082500	26.2534900	1	1	110
2234	Muscat	70418	58.3828700	23.5880300	1	1	110
2235	Ras al-Hadd	70419	59.7920000	22.5251900	1	1	110
2236	Ras al-Khaymah	70420	55.9761900	25.8006900	1	1	110
2237	Suhar	70421	56.7133200	24.3500600	1	1	110
2238	Sur	70422	72.8310600	21.1702400	1	1	110
2239	Al Zubara, Zubarah	70423	51.0298800	25.9750700	1	1	110
2377	Hormoz, Hormuz, Hurmuz	70424	56.4514600	27.0923900	1	1	110
2379	Qalhat	70425	59.3713800	22.7002800	1	1	110
2380	Masirah	70426	58.9351300	20.5808800	1	1	110
2381	Tiwi	70427	59.2527900	22.8310400	1	1	110
2389	Gamron	70428	56.2883600	27.1962500	1	1	110
2489	Batina	70429	56.7133200	24.3500600	1	1	110
2490	Mirbat	70430	54.7025800	16.9936800	1	1	110
2491	Ras Madrakah, Ras al-Madraka	70431	57.7892200	18.9800800	1	1	110
2492	Salalah	70432	54.1110500	17.0230700	1	1	110
2493	Bandar-e Kong	70433	54.9295800	26.5978000	1	1	110
2494	Karachi	70434	67.0013800	24.8806800	1	1	110
2495	Sharjah	70435	55.4233500	25.3657700	1	1	110
2240	Persian Gulf and Gulf of Oman, port unspecified	70499	47.7737800	30.5259900	1	1	110
2241	Northwestern India, port unspecified	80202	69.9390600	21.2819200	1	1	111
2242	Bombay	80203	72.8776500	19.0759800	1	1	111
2243	Cambay	80204	72.6189800	22.3180800	1	1	111
2244	Daman	80205	72.8327900	20.3973700	1	1	111
2245	Diu	80206	70.9249500	20.7215800	1	1	111
755	Goa	80207	73.8293900	15.5009500	1	1	111
2246	Surat	80208	72.8310600	21.1702400	1	1	111
2247	Malabar Coast, port unspecified	80209	73.8293900	15.5009500	1	1	111
2248	Anjengo	80210	76.7581700	8.6734300	1	1	111
2249	Calicut	80211	75.7804100	11.2587500	1	1	111
2250	Cochin, Kochi	80212	76.2673000	9.9312300	1	1	111
2251	Tellicherry	80213	75.4890300	11.7491400	1	1	111
2252	Arakan	80214	93.5812600	20.1040800	1	1	111
2253	Angarcale	80215	90.3638200	22.4873900	1	1	111
2254	Dianga	80216	NULL	NULL	1	1	111
595	Bengal	80217	87.9994500	21.6457000	1	1	111
756	Calcutta	80218	88.3628700	22.5743500	1	1	111
2255	Chandernagore	80219	88.3674300	22.8671100	1	1	111
2256	Chittagong	80220	91.8348600	22.3752000	1	1	111
2257	Kedgeree/Kagery	80221	87.8367200	21.6807300	1	1	111
2258	Coromandel Coast, port unspecified	80222	80.2513700	12.9878400	1	1	111
2259	Bimilipatam	80223	83.4524800	17.8888600	1	1	111
2260	Coringa	80224	82.2997900	16.8248300	1	1	111
2261	Cuddalore	80225	79.7713600	11.7480400	1	1	111
2262	Devanampatnam	80226	79.7834400	11.7466500	1	1	111
2263	Ganjam	80227	85.0523300	19.3871200	1	1	111
2264	Jaggernatpooram	80228	NULL	NULL	1	1	111
